{
"type": "FeatureCollection",
"crs": { "type": "name", "properties": { "name": "urn:ogc:def:crs:OGC:1.3:CRS84" } },
                                                                                
"features": [
{ "type": "Feature", "properties": { "osm_id": "2236165975", "name": "Shankar electronics", "barrier": null, "highway": null, "ref": null, "address": null, "is_in": null, "place": null, "man_made": null, "other_tags": "\"shop\"=>\"electronics\"", "nodeAuthor": "BishnuDhungana", "nodeAuth_1": null, "nodeAuth_2": "2014-09-13T08:12:50Z" }, "geometry": { "type": "Point", "coordinates": [ 85.3475286, 27.7174711 ] } },
{ "type": "Feature", "properties": { "osm_id": "2236239795", "name": null, "barrier": null, "highway": "street_lamp", "ref": null, "address": null, "is_in": null, "place": null, "man_made": null, "other_tags": null, "nodeAuthor": "aayushma", "nodeAuth_1": null, "nodeAuth_2": "2014-09-13T07:54:22Z" }, "geometry": { "type": "Point", "coordinates": [ 85.347727, 27.717429 ] } },
{ "type": "Feature", "properties": { "osm_id": "2246845607", "name": null, "barrier": null, "highway": "street_lamp", "ref": null, "address": null, "is_in": null, "place": null, "man_made": null, "other_tags": null, "nodeAuthor": "BishnuDhungana", "nodeAuth_1": null, "nodeAuth_2": "2014-09-13T08:12:50Z" }, "geometry": { "type": "Point", "coordinates": [ 85.3471747, 27.715384 ] } },
{ "type": "Feature", "properties": { "osm_id": "2478527953", "name": null, "barrier": null, "highway": null, "ref": null, "address": null, "is_in": null, "place": null, "man_made": null, "other_tags": "\"shop\"=>\"convenience\"", "nodeAuthor": "Sazeeta", "nodeAuth_1": null, "nodeAuth_2": "2014-09-13T07:59:25Z" }, "geometry": { "type": "Point", "coordinates": [ 85.341089, 27.7160699 ] } },
{ "type": "Feature", "properties": { "osm_id": "2479701560", "name": null, "barrier": null, "highway": null, "ref": null, "address": null, "is_in": null, "place": null, "man_made": null, "other_tags": "\"shop\"=>\"convenience\"", "nodeAuthor": "Sazeeta", "nodeAuth_1": null, "nodeAuth_2": "2014-09-13T07:59:25Z" }, "geometry": { "type": "Point", "coordinates": [ 85.3413193, 27.7168827 ] } },
{ "type": "Feature", "properties": { "osm_id": "2687382641", "name": null, "barrier": null, "highway": null, "ref": null, "address": null, "is_in": null, "place": null, "man_made": null, "other_tags": "\"amenity\"=>\"clinic\"", "nodeAuthor": "richa15", "nodeAuth_1": null, "nodeAuth_2": "2014-09-13T08:05:41Z" }, "geometry": { "type": "Point", "coordinates": [ 85.3473707, 27.717371 ] } },
{ "type": "Feature", "properties": { "osm_id": "3074521633", "name": "Street Lamp", "barrier": null, "highway": "street_lamp", "ref": null, "address": null, "is_in": null, "place": null, "man_made": null, "other_tags": null, "nodeAuthor": "Akash Mainali", "nodeAuth_1": null, "nodeAuth_2": "2014-09-13T06:48:17Z" }, "geometry": { "type": "Point", "coordinates": [ 85.3479711, 27.7149444 ] } },
{ "type": "Feature", "properties": { "osm_id": "3074521634", "name": "Street Lamp", "barrier": null, "highway": "street_lamp", "ref": null, "address": null, "is_in": null, "place": null, "man_made": null, "other_tags": null, "nodeAuthor": "Akash Mainali", "nodeAuth_1": null, "nodeAuth_2": "2014-09-13T06:48:17Z" }, "geometry": { "type": "Point", "coordinates": [ 85.3482616, 27.714917 ] } },
{ "type": "Feature", "properties": { "osm_id": "3074523953", "name": null, "barrier": null, "highway": "street_lamp", "ref": null, "address": null, "is_in": null, "place": null, "man_made": null, "other_tags": null, "nodeAuthor": "Shaishab Kishor Shrestha", "nodeAuth_1": null, "nodeAuth_2": "2014-09-13T07:10:47Z" }, "geometry": { "type": "Point", "coordinates": [ 85.3427125, 27.7173283 ] } },
{ "type": "Feature", "properties": { "osm_id": "3074531698", "name": null, "barrier": null, "highway": null, "ref": null, "address": null, "is_in": null, "place": null, "man_made": null, "other_tags": null, "nodeAuthor": "Sazeeta", "nodeAuth_1": null, "nodeAuth_2": "2014-09-13T07:01:20Z" }, "geometry": { "type": "Point", "coordinates": [ 85.3417889, 27.7154392 ] } },
{ "type": "Feature", "properties": { "osm_id": "3074534902", "name": null, "barrier": null, "highway": "street_lamp", "ref": null, "address": null, "is_in": null, "place": null, "man_made": null, "other_tags": null, "nodeAuthor": "Tammy7723", "nodeAuth_1": null, "nodeAuth_2": "2014-09-13T07:05:02Z" }, "geometry": { "type": "Point", "coordinates": [ 85.3409275, 27.7170499 ] } },
{ "type": "Feature", "properties": { "osm_id": "3074538132", "name": null, "barrier": null, "highway": "street_lamp", "ref": null, "address": null, "is_in": null, "place": null, "man_made": null, "other_tags": null, "nodeAuthor": "Tammy7723", "nodeAuth_1": null, "nodeAuth_2": "2014-09-13T07:09:34Z" }, "geometry": { "type": "Point", "coordinates": [ 85.3394719, 27.7173351 ] } },
{ "type": "Feature", "properties": { "osm_id": "3074538289", "name": null, "barrier": null, "highway": "street_lamp", "ref": null, "address": null, "is_in": null, "place": null, "man_made": null, "other_tags": null, "nodeAuthor": "Shaishab Kishor Shrestha", "nodeAuth_1": null, "nodeAuth_2": "2014-09-13T07:10:45Z" }, "geometry": { "type": "Point", "coordinates": [ 85.3421084, 27.715384 ] } },
{ "type": "Feature", "properties": { "osm_id": "3074538290", "name": null, "barrier": null, "highway": null, "ref": null, "address": null, "is_in": null, "place": null, "man_made": null, "other_tags": "\"manhole\"=>\"drain\"", "nodeAuthor": "Shaishab Kishor Shrestha", "nodeAuth_1": null, "nodeAuth_2": "2014-09-13T07:10:45Z" }, "geometry": { "type": "Point", "coordinates": [ 85.3441106, 27.715968 ] } },
{ "type": "Feature", "properties": { "osm_id": "3074538291", "name": null, "barrier": null, "highway": "street_lamp", "ref": null, "address": null, "is_in": null, "place": null, "man_made": null, "other_tags": null, "nodeAuthor": "Shaishab Kishor Shrestha", "nodeAuth_1": null, "nodeAuth_2": "2014-09-13T07:10:45Z" }, "geometry": { "type": "Point", "coordinates": [ 85.3417604, 27.7162014 ] } },
{ "type": "Feature", "properties": { "osm_id": "3074538292", "name": null, "barrier": null, "highway": null, "ref": null, "address": null, "is_in": null, "place": null, "man_made": null, "other_tags": "\"manhole\"=>\"drain\"", "nodeAuthor": "Shaishab Kishor Shrestha", "nodeAuth_1": null, "nodeAuth_2": "2014-09-13T07:10:45Z" }, "geometry": { "type": "Point", "coordinates": [ 85.3423943, 27.716691 ] } },
{ "type": "Feature", "properties": { "osm_id": "3074538293", "name": null, "barrier": null, "highway": null, "ref": null, "address": null, "is_in": null, "place": null, "man_made": null, "other_tags": "\"manhole\"=>\"drain\"", "nodeAuthor": "Shaishab Kishor Shrestha", "nodeAuth_1": null, "nodeAuth_2": "2014-09-13T07:10:45Z" }, "geometry": { "type": "Point", "coordinates": [ 85.3444767, 27.7169557 ] } },
{ "type": "Feature", "properties": { "osm_id": "3074538294", "name": null, "barrier": null, "highway": "street_lamp", "ref": null, "address": null, "is_in": null, "place": null, "man_made": null, "other_tags": null, "nodeAuthor": "Shaishab Kishor Shrestha", "nodeAuth_1": null, "nodeAuth_2": "2014-09-13T07:10:45Z" }, "geometry": { "type": "Point", "coordinates": [ 85.344187, 27.7171201 ] } },
{ "type": "Feature", "properties": { "osm_id": "3074538295", "name": null, "barrier": null, "highway": "street_lamp", "ref": null, "address": null, "is_in": null, "place": null, "man_made": null, "other_tags": null, "nodeAuthor": "Shaishab Kishor Shrestha", "nodeAuth_1": null, "nodeAuth_2": "2014-09-13T07:10:45Z" }, "geometry": { "type": "Point", "coordinates": [ 85.3426346, 27.7171634 ] } },
{ "type": "Feature", "properties": { "osm_id": "3074540142", "name": "Sifal Taxi Stand", "barrier": null, "highway": null, "ref": null, "address": null, "is_in": null, "place": null, "man_made": null, "other_tags": "\"amenity\"=>\"taxi\"", "nodeAuthor": "raaz", "nodeAuth_1": null, "nodeAuth_2": "2014-09-13T07:19:44Z" }, "geometry": { "type": "Point", "coordinates": [ 85.3407802, 27.7119011 ] } },
{ "type": "Feature", "properties": { "osm_id": "3074542381", "name": "Shipal Peepal Bot", "barrier": null, "highway": null, "ref": null, "address": null, "is_in": null, "place": null, "man_made": null, "other_tags": "\"natural\"=>\"tree\"", "nodeAuthor": "rupa12", "nodeAuth_1": null, "nodeAuth_2": "2014-09-13T08:00:12Z" }, "geometry": { "type": "Point", "coordinates": [ 85.3409258, 27.7119409 ] } },
{ "type": "Feature", "properties": { "osm_id": "3074552655", "name": null, "barrier": null, "highway": null, "ref": null, "address": null, "is_in": null, "place": null, "man_made": null, "other_tags": "\"power\"=>\"pole\",\"transformer\"=>\"yes\"", "nodeAuthor": "Sunil Sah", "nodeAuth_1": null, "nodeAuth_2": "2014-09-13T07:32:02Z" }, "geometry": { "type": "Point", "coordinates": [ 85.3416435, 27.711231 ] } },
{ "type": "Feature", "properties": { "osm_id": "3074557198", "name": null, "barrier": null, "highway": "street_lamp", "ref": null, "address": null, "is_in": null, "place": null, "man_made": null, "other_tags": null, "nodeAuthor": "Shaishab Kishor Shrestha", "nodeAuth_1": null, "nodeAuth_2": "2014-09-13T07:36:11Z" }, "geometry": { "type": "Point", "coordinates": [ 85.3434242, 27.7172172 ] } },
{ "type": "Feature", "properties": { "osm_id": "3074557200", "name": null, "barrier": null, "highway": "street_lamp", "ref": null, "address": null, "is_in": null, "place": null, "man_made": null, "other_tags": null, "nodeAuthor": "Shaishab Kishor Shrestha", "nodeAuth_1": null, "nodeAuth_2": "2014-09-13T07:36:11Z" }, "geometry": { "type": "Point", "coordinates": [ 85.3428986, 27.7172899 ] } },
{ "type": "Feature", "properties": { "osm_id": "3074557309", "name": null, "barrier": null, "highway": "street_lamp", "ref": null, "address": null, "is_in": null, "place": null, "man_made": null, "other_tags": null, "nodeAuthor": "sujan prajapati", "nodeAuth_1": null, "nodeAuth_2": "2014-09-13T07:37:05Z" }, "geometry": { "type": "Point", "coordinates": [ 85.3472217, 27.7148205 ] } },
{ "type": "Feature", "properties": { "osm_id": "3074558301", "name": null, "barrier": null, "highway": null, "ref": null, "address": null, "is_in": null, "place": null, "man_made": null, "other_tags": "\"manhole\"=>\"drain\"", "nodeAuthor": "Shaishab Kishor Shrestha", "nodeAuth_1": null, "nodeAuth_2": "2014-09-13T07:39:05Z" }, "geometry": { "type": "Point", "coordinates": [ 85.342454, 27.7166675 ] } },
{ "type": "Feature", "properties": { "osm_id": "3074560229", "name": "Hair Salon", "barrier": null, "highway": null, "ref": null, "address": null, "is_in": null, "place": null, "man_made": null, "other_tags": null, "nodeAuthor": "sujan prajapati", "nodeAuth_1": null, "nodeAuth_2": "2014-09-13T07:54:40Z" }, "geometry": { "type": "Point", "coordinates": [ 85.3495351, 27.7149053 ] } },
{ "type": "Feature", "properties": { "osm_id": "3074560230", "name": "convinent Store", "barrier": null, "highway": null, "ref": null, "address": null, "is_in": null, "place": null, "man_made": null, "other_tags": null, "nodeAuthor": "sujan prajapati", "nodeAuth_1": null, "nodeAuth_2": "2014-09-13T07:54:40Z" }, "geometry": { "type": "Point", "coordinates": [ 85.349617, 27.7149001 ] } },
{ "type": "Feature", "properties": { "osm_id": "3074563846", "name": "Baidhya nath bhandari ayurved dham", "barrier": null, "highway": null, "ref": null, "address": null, "is_in": null, "place": null, "man_made": null, "other_tags": "\"amenity\"=>\"pharmacy\"", "nodeAuthor": "manrojit", "nodeAuth_1": null, "nodeAuth_2": "2014-09-13T07:45:07Z" }, "geometry": { "type": "Point", "coordinates": [ 85.3383499, 27.7105149 ] } },
{ "type": "Feature", "properties": { "osm_id": "3074563847", "name": "Cross Road Cafe", "barrier": null, "highway": null, "ref": null, "address": null, "is_in": null, "place": null, "man_made": null, "other_tags": "\"amenity\"=>\"cafe\"", "nodeAuthor": "manrojit", "nodeAuth_1": null, "nodeAuth_2": "2014-09-13T07:45:07Z" }, "geometry": { "type": "Point", "coordinates": [ 85.3395574, 27.7080891 ] } },
{ "type": "Feature", "properties": { "osm_id": "3074563848", "name": "Dana Travels And Tours Pvt Ltd", "barrier": null, "highway": null, "ref": null, "address": null, "is_in": null, "place": null, "man_made": null, "other_tags": "\"shop\"=>\"travel_agency\"", "nodeAuthor": "manrojit", "nodeAuth_1": null, "nodeAuth_2": "2014-09-13T07:45:07Z" }, "geometry": { "type": "Point", "coordinates": [ 85.3401078, 27.708128 ] } },
{ "type": "Feature", "properties": { "osm_id": "3074563849", "name": "Dumping Site", "barrier": null, "highway": null, "ref": null, "address": null, "is_in": null, "place": null, "man_made": null, "other_tags": "\"landuse\"=>\"landfill\"", "nodeAuthor": "manrojit", "nodeAuth_1": null, "nodeAuth_2": "2014-09-13T07:45:07Z" }, "geometry": { "type": "Point", "coordinates": [ 85.3370525, 27.7081994 ] } },
{ "type": "Feature", "properties": { "osm_id": "3074563850", "name": "EMO Bachat Tatha Sahakari Sansthan", "barrier": null, "highway": null, "ref": null, "address": null, "is_in": null, "place": null, "man_made": null, "other_tags": "\"office\"=>\"cooperative\"", "nodeAuthor": "manrojit", "nodeAuth_1": null, "nodeAuth_2": "2014-09-13T07:45:07Z" }, "geometry": { "type": "Point", "coordinates": [ 85.3385093, 27.7104072 ] } },
{ "type": "Feature", "properties": { "osm_id": "3074563851", "name": "HVM College", "barrier": null, "highway": null, "ref": null, "address": null, "is_in": null, "place": null, "man_made": null, "other_tags": "\"amenity\"=>\"school\",\"building\"=>\"school\"", "nodeAuthor": "manrojit", "nodeAuth_1": null, "nodeAuth_2": "2014-09-13T07:45:07Z" }, "geometry": { "type": "Point", "coordinates": [ 85.3389541, 27.7100541 ] } },
{ "type": "Feature", "properties": { "osm_id": "3074563852", "name": "Lumbini Tandoori Restaruant", "barrier": null, "highway": null, "ref": null, "address": null, "is_in": null, "place": null, "man_made": null, "other_tags": "\"amenity\"=>\"restaurant\"", "nodeAuthor": "manrojit", "nodeAuth_1": null, "nodeAuth_2": "2014-09-13T07:45:07Z" }, "geometry": { "type": "Point", "coordinates": [ 85.3397907, 27.7080756 ] } },
{ "type": "Feature", "properties": { "osm_id": "3074563853", "name": "Niisha Ladies and Gents Tailors", "barrier": null, "highway": null, "ref": null, "address": null, "is_in": null, "place": null, "man_made": null, "other_tags": "\"shop\"=>\"boutique\"", "nodeAuthor": "manrojit", "nodeAuth_1": null, "nodeAuth_2": "2014-09-13T07:45:07Z" }, "geometry": { "type": "Point", "coordinates": [ 85.3383523, 27.7106325 ] } },
{ "type": "Feature", "properties": { "osm_id": "3074563854", "name": "Purbeli Hotel", "barrier": null, "highway": null, "ref": null, "address": null, "is_in": null, "place": null, "man_made": null, "other_tags": "\"amenity\"=>\"restaurant\"", "nodeAuthor": "manrojit", "nodeAuth_1": null, "nodeAuth_2": "2014-09-13T07:45:07Z" }, "geometry": { "type": "Point", "coordinates": [ 85.3398853, 27.708073 ] } },
{ "type": "Feature", "properties": { "osm_id": "3074563855", "name": "RK Cafe", "barrier": null, "highway": null, "ref": null, "address": null, "is_in": null, "place": null, "man_made": null, "other_tags": "\"amenity\"=>\"cafe\"", "nodeAuthor": "manrojit", "nodeAuth_1": null, "nodeAuth_2": "2014-09-13T07:45:07Z" }, "geometry": { "type": "Point", "coordinates": [ 85.3396627, 27.7081079 ] } },
{ "type": "Feature", "properties": { "osm_id": "3074563856", "name": "S and S Meat Shop", "barrier": null, "highway": null, "ref": null, "address": null, "is_in": null, "place": null, "man_made": null, "other_tags": "\"shop\"=>\"butcher\"", "nodeAuthor": "manrojit", "nodeAuth_1": null, "nodeAuth_2": "2014-09-13T07:45:07Z" }, "geometry": { "type": "Point", "coordinates": [ 85.3399433, 27.7080772 ] } },
{ "type": "Feature", "properties": { "osm_id": "3074563857", "name": "Sunrize Beauty Parlor", "barrier": null, "highway": null, "ref": null, "address": null, "is_in": null, "place": null, "man_made": null, "other_tags": "\"shop\"=>\"beauty\"", "nodeAuthor": "manrojit", "nodeAuth_1": null, "nodeAuth_2": "2014-09-13T07:45:07Z" }, "geometry": { "type": "Point", "coordinates": [ 85.3374864, 27.7103944 ] } },
{ "type": "Feature", "properties": { "osm_id": "3074563858", "name": "World Travel and Investment Pvt Ltd", "barrier": null, "highway": null, "ref": null, "address": null, "is_in": null, "place": null, "man_made": null, "other_tags": "\"shop\"=>\"travel_agency\"", "nodeAuthor": "manrojit", "nodeAuth_1": null, "nodeAuth_2": "2014-09-13T07:45:07Z" }, "geometry": { "type": "Point", "coordinates": [ 85.3403029, 27.7081842 ] } },
{ "type": "Feature", "properties": { "osm_id": "3074563859", "name": "manju and anuska khaja ghar", "barrier": null, "highway": null, "ref": null, "address": null, "is_in": null, "place": null, "man_made": null, "other_tags": "\"amenity\"=>\"fast_food\"", "nodeAuthor": "manrojit", "nodeAuth_1": null, "nodeAuth_2": "2014-09-13T07:45:07Z" }, "geometry": { "type": "Point", "coordinates": [ 85.3373088, 27.7096384 ] } },
{ "type": "Feature", "properties": { "osm_id": "3074563860", "name": "new purbanchal hotel and guest house", "barrier": null, "highway": null, "ref": null, "address": null, "is_in": null, "place": null, "man_made": null, "other_tags": "\"tourism\"=>\"hotel\"", "nodeAuthor": "manrojit", "nodeAuth_1": null, "nodeAuth_2": "2014-09-13T07:45:07Z" }, "geometry": { "type": "Point", "coordinates": [ 85.3399997, 27.708108 ] } },
{ "type": "Feature", "properties": { "osm_id": "3074563879", "name": null, "barrier": null, "highway": null, "ref": null, "address": null, "is_in": null, "place": null, "man_made": null, "other_tags": "\"shop\"=>\"convenience\"", "nodeAuthor": "manrojit", "nodeAuth_1": null, "nodeAuth_2": "2014-09-13T07:45:07Z" }, "geometry": { "type": "Point", "coordinates": [ 85.3395998, 27.7098654 ] } },
{ "type": "Feature", "properties": { "osm_id": "3074563880", "name": null, "barrier": null, "highway": "street_lamp", "ref": null, "address": null, "is_in": null, "place": null, "man_made": null, "other_tags": null, "nodeAuthor": "manrojit", "nodeAuth_1": null, "nodeAuth_2": "2014-09-13T07:45:07Z" }, "geometry": { "type": "Point", "coordinates": [ 85.3394206, 27.7100438 ] } },
{ "type": "Feature", "properties": { "osm_id": "3074563881", "name": null, "barrier": null, "highway": "street_lamp", "ref": null, "address": null, "is_in": null, "place": null, "man_made": null, "other_tags": null, "nodeAuthor": "manrojit", "nodeAuth_1": null, "nodeAuth_2": "2014-09-13T07:45:07Z" }, "geometry": { "type": "Point", "coordinates": [ 85.3386294, 27.7103982 ] } },
{ "type": "Feature", "properties": { "osm_id": "3074563882", "name": null, "barrier": null, "highway": "street_lamp", "ref": null, "address": null, "is_in": null, "place": null, "man_made": null, "other_tags": null, "nodeAuthor": "manrojit", "nodeAuth_1": null, "nodeAuth_2": "2014-09-13T07:45:07Z" }, "geometry": { "type": "Point", "coordinates": [ 85.3379903, 27.7108873 ] } },
{ "type": "Feature", "properties": { "osm_id": "3074563884", "name": null, "barrier": null, "highway": "street_lamp", "ref": null, "address": null, "is_in": null, "place": null, "man_made": null, "other_tags": null, "nodeAuthor": "manrojit", "nodeAuth_1": null, "nodeAuth_2": "2014-09-13T07:45:08Z" }, "geometry": { "type": "Point", "coordinates": [ 85.3377899, 27.7110626 ] } },
{ "type": "Feature", "properties": { "osm_id": "3074563885", "name": null, "barrier": null, "highway": "street_lamp", "ref": null, "address": null, "is_in": null, "place": null, "man_made": null, "other_tags": null, "nodeAuthor": "manrojit", "nodeAuth_1": null, "nodeAuth_2": "2014-09-13T07:45:08Z" }, "geometry": { "type": "Point", "coordinates": [ 85.337719, 27.7112016 ] } },
{ "type": "Feature", "properties": { "osm_id": "3074563887", "name": "radhe krishna boys hostel", "barrier": null, "highway": null, "ref": null, "address": null, "is_in": null, "place": null, "man_made": null, "other_tags": "\"tourism\"=>\"hostel\"", "nodeAuthor": "manrojit", "nodeAuth_1": null, "nodeAuth_2": "2014-09-13T07:45:08Z" }, "geometry": { "type": "Point", "coordinates": [ 85.3376149, 27.7100441 ] } },
{ "type": "Feature", "properties": { "osm_id": "3074563888", "name": "upreti niwas", "barrier": null, "highway": null, "ref": null, "address": null, "is_in": null, "place": null, "man_made": null, "other_tags": "\"building\"=>\"residential\"", "nodeAuthor": "manrojit", "nodeAuth_1": null, "nodeAuth_2": "2014-09-13T07:45:08Z" }, "geometry": { "type": "Point", "coordinates": [ 85.3375882, 27.7100931 ] } },
{ "type": "Feature", "properties": { "osm_id": "3074564881", "name": "Children's Diagnosis Center", "barrier": null, "highway": null, "ref": null, "address": null, "is_in": null, "place": null, "man_made": null, "other_tags": "\"amenity\"=>\"clinic\"", "nodeAuthor": "abishek shrestha", "nodeAuth_1": null, "nodeAuth_2": "2014-09-13T07:46:13Z" }, "geometry": { "type": "Point", "coordinates": [ 85.3461845, 27.7169627 ] } },
{ "type": "Feature", "properties": { "osm_id": "3074564882", "name": "Helping Hands Pharmacy", "barrier": null, "highway": null, "ref": null, "address": null, "is_in": null, "place": null, "man_made": null, "other_tags": "\"amenity\"=>\"pharmacy\"", "nodeAuthor": "abishek shrestha", "nodeAuth_1": null, "nodeAuth_2": "2014-09-13T07:46:13Z" }, "geometry": { "type": "Point", "coordinates": [ 85.3463666, 27.717272 ] } },
{ "type": "Feature", "properties": { "osm_id": "3074564883", "name": "NDEP Development Bank", "barrier": null, "highway": null, "ref": null, "address": null, "is_in": null, "place": null, "man_made": null, "other_tags": "\"amenity\"=>\"bank\",\"atm\"=>\"no\",\"survelliance\"=>\"indoor\"", "nodeAuthor": "abishek shrestha", "nodeAuth_1": null, "nodeAuth_2": "2014-09-13T07:46:13Z" }, "geometry": { "type": "Point", "coordinates": [ 85.3462332, 27.7169638 ] } },
{ "type": "Feature", "properties": { "osm_id": "3074564884", "name": "Samaj Dental Pharmacy", "barrier": null, "highway": null, "ref": null, "address": null, "is_in": null, "place": null, "man_made": null, "other_tags": "\"amenity\"=>\"pharmacy\"", "nodeAuthor": "abishek shrestha", "nodeAuth_1": null, "nodeAuth_2": "2014-09-13T07:46:13Z" }, "geometry": { "type": "Point", "coordinates": [ 85.3463435, 27.7173954 ] } },
{ "type": "Feature", "properties": { "osm_id": "3074564885", "name": null, "barrier": null, "highway": "street_lamp", "ref": null, "address": null, "is_in": null, "place": null, "man_made": null, "other_tags": null, "nodeAuthor": "abishek shrestha", "nodeAuth_1": null, "nodeAuth_2": "2014-09-13T07:46:13Z" }, "geometry": { "type": "Point", "coordinates": [ 85.3449414, 27.7167215 ] } },
{ "type": "Feature", "properties": { "osm_id": "3074564886", "name": null, "barrier": null, "highway": null, "ref": null, "address": null, "is_in": null, "place": null, "man_made": null, "other_tags": "\"amenity\"=>\"place_of_worship\",\"building\"=>\"temple\",\"religion\"=>\"Bhimsen Mandir\"", "nodeAuthor": "abishek shrestha", "nodeAuth_1": null, "nodeAuth_2": "2014-09-13T07:46:13Z" }, "geometry": { "type": "Point", "coordinates": [ 85.3458305, 27.7169712 ] } },
{ "type": "Feature", "properties": { "osm_id": "3074564887", "name": null, "barrier": null, "highway": "traffic_signals", "ref": null, "address": null, "is_in": null, "place": null, "man_made": null, "other_tags": "\"traffic_signals\"=>\"backward\"", "nodeAuthor": "abishek shrestha", "nodeAuth_1": null, "nodeAuth_2": "2014-09-13T07:46:13Z" }, "geometry": { "type": "Point", "coordinates": [ 85.3464774, 27.7170035 ] } },
{ "type": "Feature", "properties": { "osm_id": "3074564888", "name": null, "barrier": null, "highway": "street_lamp", "ref": null, "address": null, "is_in": null, "place": null, "man_made": null, "other_tags": null, "nodeAuthor": "abishek shrestha", "nodeAuth_1": null, "nodeAuth_2": "2014-09-13T07:46:13Z" }, "geometry": { "type": "Point", "coordinates": [ 85.3464131, 27.7171376 ] } },
{ "type": "Feature", "properties": { "osm_id": "3074564890", "name": null, "barrier": null, "highway": "street_lamp", "ref": null, "address": null, "is_in": null, "place": null, "man_made": null, "other_tags": null, "nodeAuthor": "abishek shrestha", "nodeAuth_1": null, "nodeAuth_2": "2014-09-13T07:46:13Z" }, "geometry": { "type": "Point", "coordinates": [ 85.3464166, 27.7172863 ] } },
{ "type": "Feature", "properties": { "osm_id": "3074564891", "name": null, "barrier": null, "highway": null, "ref": null, "address": null, "is_in": null, "place": null, "man_made": null, "other_tags": "\"amenity\"=>\"atm\"", "nodeAuthor": "abishek shrestha", "nodeAuth_1": null, "nodeAuth_2": "2014-09-13T07:46:13Z" }, "geometry": { "type": "Point", "coordinates": [ 85.3463439, 27.7174082 ] } },
{ "type": "Feature", "properties": { "osm_id": "3074564892", "name": "7.9 Food Blog", "barrier": null, "highway": null, "ref": null, "address": null, "is_in": null, "place": null, "man_made": null, "other_tags": "\"amenity\"=>\"restaurant\"", "nodeAuthor": "abishek shrestha", "nodeAuth_1": null, "nodeAuth_2": "2014-09-13T07:46:13Z" }, "geometry": { "type": "Point", "coordinates": [ 85.3451248, 27.7167675 ] } },
{ "type": "Feature", "properties": { "osm_id": "3074565470", "name": "Aanaupacharik shikcha tatha deeva chisu shaher khendra", "barrier": null, "highway": null, "ref": null, "address": null, "is_in": null, "place": null, "man_made": null, "other_tags": null, "nodeAuthor": "sujan prajapati", "nodeAuth_1": null, "nodeAuth_2": "2014-09-13T07:48:50Z" }, "geometry": { "type": "Point", "coordinates": [ 85.3487716, 27.7148512 ] } },
{ "type": "Feature", "properties": { "osm_id": "3074565471", "name": "Gauri saving and loan cooperative", "barrier": null, "highway": null, "ref": null, "address": null, "is_in": null, "place": null, "man_made": null, "other_tags": null, "nodeAuthor": "sujan prajapati", "nodeAuth_1": null, "nodeAuth_2": "2014-09-13T07:48:50Z" }, "geometry": { "type": "Point", "coordinates": [ 85.3487736, 27.7148693 ] } },
{ "type": "Feature", "properties": { "osm_id": "3074565474", "name": null, "barrier": null, "highway": "street_lamp", "ref": null, "address": null, "is_in": null, "place": null, "man_made": null, "other_tags": null, "nodeAuthor": "sujan prajapati", "nodeAuth_1": null, "nodeAuth_2": "2014-09-13T07:48:50Z" }, "geometry": { "type": "Point", "coordinates": [ 85.3485242, 27.7149542 ] } },
{ "type": "Feature", "properties": { "osm_id": "3074565477", "name": null, "barrier": null, "highway": "street_lamp", "ref": null, "address": null, "is_in": null, "place": null, "man_made": null, "other_tags": null, "nodeAuthor": "sujan prajapati", "nodeAuth_1": null, "nodeAuth_2": "2014-09-13T07:48:50Z" }, "geometry": { "type": "Point", "coordinates": [ 85.3489691, 27.7149954 ] } },
{ "type": "Feature", "properties": { "osm_id": "3074565478", "name": null, "barrier": null, "highway": "street_lamp", "ref": null, "address": null, "is_in": null, "place": null, "man_made": null, "other_tags": null, "nodeAuthor": "sujan prajapati", "nodeAuth_1": null, "nodeAuth_2": "2014-09-13T07:48:50Z" }, "geometry": { "type": "Point", "coordinates": [ 85.3487115, 27.7149964 ] } },
{ "type": "Feature", "properties": { "osm_id": "3074565479", "name": null, "barrier": null, "highway": "street_lamp", "ref": null, "address": null, "is_in": null, "place": null, "man_made": null, "other_tags": null, "nodeAuthor": "sujan prajapati", "nodeAuth_1": null, "nodeAuth_2": "2014-09-13T07:48:50Z" }, "geometry": { "type": "Point", "coordinates": [ 85.3491774, 27.7149987 ] } },
{ "type": "Feature", "properties": { "osm_id": "3074565480", "name": null, "barrier": null, "highway": "street_lamp", "ref": null, "address": null, "is_in": null, "place": null, "man_made": null, "other_tags": null, "nodeAuthor": "sujan prajapati", "nodeAuth_1": null, "nodeAuth_2": "2014-09-13T07:48:50Z" }, "geometry": { "type": "Point", "coordinates": [ 85.3475914, 27.7152972 ] } },
{ "type": "Feature", "properties": { "osm_id": "3074566721", "name": "Chhimeki Restaurant", "barrier": null, "highway": null, "ref": null, "address": null, "is_in": null, "place": null, "man_made": null, "other_tags": "\"amenity\"=>\"restaurant\"", "nodeAuthor": "Abinash09", "nodeAuth_1": null, "nodeAuth_2": "2014-09-13T07:48:50Z" }, "geometry": { "type": "Point", "coordinates": [ 85.3463669, 27.7175846 ] } },
{ "type": "Feature", "properties": { "osm_id": "3074566722", "name": "Deepika School", "barrier": null, "highway": null, "ref": null, "address": null, "is_in": null, "place": null, "man_made": null, "other_tags": "\"amenity\"=>\"school\",\"building\"=>\"school\"", "nodeAuthor": "Abinash09", "nodeAuth_1": null, "nodeAuth_2": "2014-09-13T07:48:50Z" }, "geometry": { "type": "Point", "coordinates": [ 85.3463422, 27.7181963 ] } },
{ "type": "Feature", "properties": { "osm_id": "3074566723", "name": "Dental Clinic", "barrier": null, "highway": null, "ref": null, "address": null, "is_in": null, "place": null, "man_made": null, "other_tags": "\"amenity\"=>\"clinic\"", "nodeAuthor": "Abinash09", "nodeAuth_1": null, "nodeAuth_2": "2014-09-13T07:48:50Z" }, "geometry": { "type": "Point", "coordinates": [ 85.3453705, 27.717054 ] } },
{ "type": "Feature", "properties": { "osm_id": "3074566724", "name": "Maa Durga Pharmacy", "barrier": null, "highway": null, "ref": null, "address": null, "is_in": null, "place": null, "man_made": null, "other_tags": "\"amenity\"=>\"pharmacy\"", "nodeAuthor": "Abinash09", "nodeAuth_1": null, "nodeAuth_2": "2014-09-13T07:48:50Z" }, "geometry": { "type": "Point", "coordinates": [ 85.3464872, 27.7187293 ] } },
{ "type": "Feature", "properties": { "osm_id": "3074566725", "name": "Medi Noor Pharmacy", "barrier": null, "highway": null, "ref": null, "address": null, "is_in": null, "place": null, "man_made": null, "other_tags": "\"amenity\"=>\"pharmacy\"", "nodeAuthor": "Abinash09", "nodeAuth_1": null, "nodeAuth_2": "2014-09-13T07:48:50Z" }, "geometry": { "type": "Point", "coordinates": [ 85.3465601, 27.7183162 ] } },
{ "type": "Feature", "properties": { "osm_id": "3074566726", "name": "Medi Plus Pharmacy", "barrier": null, "highway": null, "ref": null, "address": null, "is_in": null, "place": null, "man_made": null, "other_tags": "\"amenity\"=>\"pharmacy\"", "nodeAuthor": "Abinash09", "nodeAuth_1": null, "nodeAuth_2": "2014-09-13T07:48:50Z" }, "geometry": { "type": "Point", "coordinates": [ 85.3465042, 27.7186901 ] } },
{ "type": "Feature", "properties": { "osm_id": "3074566727", "name": "Space Pharmacy", "barrier": null, "highway": null, "ref": null, "address": null, "is_in": null, "place": null, "man_made": null, "other_tags": "\"amenity\"=>\"pharmacy\"", "nodeAuthor": "Abinash09", "nodeAuth_1": null, "nodeAuth_2": "2014-09-13T07:48:51Z" }, "geometry": { "type": "Point", "coordinates": [ 85.3465477, 27.7180355 ] } },
{ "type": "Feature", "properties": { "osm_id": "3074566728", "name": "Sundaram Pharmacy", "barrier": null, "highway": null, "ref": null, "address": null, "is_in": null, "place": null, "man_made": null, "other_tags": "\"amenity\"=>\"pharmacy\"", "nodeAuthor": "Abinash09", "nodeAuth_1": null, "nodeAuth_2": "2014-09-13T07:48:51Z" }, "geometry": { "type": "Point", "coordinates": [ 85.3465601, 27.7182896 ] } },
{ "type": "Feature", "properties": { "osm_id": "3074566730", "name": null, "barrier": null, "highway": "street_lamp", "ref": null, "address": null, "is_in": null, "place": null, "man_made": null, "other_tags": null, "nodeAuthor": "Abinash09", "nodeAuth_1": null, "nodeAuth_2": "2014-09-13T07:48:51Z" }, "geometry": { "type": "Point", "coordinates": [ 85.3453792, 27.7173093 ] } },
{ "type": "Feature", "properties": { "osm_id": "3074566732", "name": null, "barrier": null, "highway": "street_lamp", "ref": null, "address": null, "is_in": null, "place": null, "man_made": null, "other_tags": null, "nodeAuthor": "Abinash09", "nodeAuth_1": null, "nodeAuth_2": "2014-09-13T07:48:51Z" }, "geometry": { "type": "Point", "coordinates": [ 85.3455422, 27.717655 ] } },
{ "type": "Feature", "properties": { "osm_id": "3074566733", "name": null, "barrier": null, "highway": "bus_stop", "ref": null, "address": null, "is_in": null, "place": null, "man_made": null, "other_tags": null, "nodeAuthor": "Abinash09", "nodeAuth_1": null, "nodeAuth_2": "2014-09-13T07:48:51Z" }, "geometry": { "type": "Point", "coordinates": [ 85.3465427, 27.7176691 ] } },
{ "type": "Feature", "properties": { "osm_id": "3074566734", "name": null, "barrier": null, "highway": "street_lamp", "ref": null, "address": null, "is_in": null, "place": null, "man_made": null, "other_tags": null, "nodeAuthor": "Abinash09", "nodeAuth_1": null, "nodeAuth_2": "2014-09-13T07:48:51Z" }, "geometry": { "type": "Point", "coordinates": [ 85.3462608, 27.7178119 ] } },
{ "type": "Feature", "properties": { "osm_id": "3074566735", "name": null, "barrier": null, "highway": "street_lamp", "ref": null, "address": null, "is_in": null, "place": null, "man_made": null, "other_tags": null, "nodeAuthor": "Abinash09", "nodeAuth_1": null, "nodeAuth_2": "2014-09-13T07:48:51Z" }, "geometry": { "type": "Point", "coordinates": [ 85.3456132, 27.7178366 ] } },
{ "type": "Feature", "properties": { "osm_id": "3074566736", "name": null, "barrier": null, "highway": "street_lamp", "ref": null, "address": null, "is_in": null, "place": null, "man_made": null, "other_tags": null, "nodeAuthor": "Abinash09", "nodeAuth_1": null, "nodeAuth_2": "2014-09-13T07:48:51Z" }, "geometry": { "type": "Point", "coordinates": [ 85.3458231, 27.7179271 ] } },
{ "type": "Feature", "properties": { "osm_id": "3074566737", "name": null, "barrier": null, "highway": null, "ref": null, "address": null, "is_in": null, "place": null, "man_made": null, "other_tags": "\"amenity\"=>\"bank\",\"atm\"=>\"yes\",\"survelliance\"=>\"outdoor\"", "nodeAuthor": "Abinash09", "nodeAuth_1": null, "nodeAuth_2": "2014-09-13T07:48:51Z" }, "geometry": { "type": "Point", "coordinates": [ 85.3465002, 27.7179398 ] } },
{ "type": "Feature", "properties": { "osm_id": "3074566743", "name": null, "barrier": null, "highway": null, "ref": null, "address": null, "is_in": null, "place": null, "man_made": null, "other_tags": "\"amenity\"=>\"taxi\"", "nodeAuthor": "Abinash09", "nodeAuth_1": null, "nodeAuth_2": "2014-09-13T07:48:51Z" }, "geometry": { "type": "Point", "coordinates": [ 85.3467369, 27.7182726 ] } },
{ "type": "Feature", "properties": { "osm_id": "3074566744", "name": null, "barrier": null, "highway": null, "ref": null, "address": null, "is_in": null, "place": null, "man_made": null, "other_tags": "\"amenity\"=>\"drinking_water\",\"dhungedhara\"=>\"yes\",\"historic\"=>\"stone_tap\"", "nodeAuthor": "Abinash09", "nodeAuth_1": null, "nodeAuth_2": "2014-09-13T07:48:51Z" }, "geometry": { "type": "Point", "coordinates": [ 85.3462019, 27.7183951 ] } },
{ "type": "Feature", "properties": { "osm_id": "3074567382", "name": "oasis consultancy", "barrier": null, "highway": null, "ref": null, "address": null, "is_in": null, "place": null, "man_made": null, "other_tags": "\"office\"=>\"consultancy\"", "nodeAuthor": "Apar", "nodeAuth_1": null, "nodeAuth_2": "2014-09-13T07:50:18Z" }, "geometry": { "type": "Point", "coordinates": [ 85.344938, 27.7168135 ] } },
{ "type": "Feature", "properties": { "osm_id": "3074567383", "name": "7.9 food blog", "barrier": null, "highway": null, "ref": null, "address": null, "is_in": null, "place": null, "man_made": null, "other_tags": "\"amenity\"=>\"restaurant\",\"cuisine\"=>\"indian\",\"opening_hours\"=>\"7-9\",\"operator\"=>\"private\"", "nodeAuthor": "Apar", "nodeAuth_1": null, "nodeAuth_2": "2014-09-13T07:50:18Z" }, "geometry": { "type": "Point", "coordinates": [ 85.3450681, 27.7168619 ] } },
{ "type": "Feature", "properties": { "osm_id": "3074567416", "name": "Charu Medical Store", "barrier": null, "highway": null, "ref": null, "address": null, "is_in": null, "place": null, "man_made": null, "other_tags": "\"amenity\"=>\"pharmacy\"", "nodeAuthor": "Abinash09", "nodeAuth_1": null, "nodeAuth_2": "2014-09-13T07:52:13Z" }, "geometry": { "type": "Point", "coordinates": [ 85.3455211, 27.7168827 ] } },
{ "type": "Feature", "properties": { "osm_id": "3074567417", "name": "Kanchan Medical Hall", "barrier": null, "highway": null, "ref": null, "address": null, "is_in": null, "place": null, "man_made": null, "other_tags": "\"amenity\"=>\"pharmacy\"", "nodeAuthor": "Abinash09", "nodeAuth_1": null, "nodeAuth_2": "2014-09-13T07:52:13Z" }, "geometry": { "type": "Point", "coordinates": [ 85.3454145, 27.7168333 ] } },
{ "type": "Feature", "properties": { "osm_id": "3074567418", "name": null, "barrier": null, "highway": null, "ref": null, "address": null, "is_in": null, "place": null, "man_made": null, "other_tags": "\"manhole\"=>\"sewer\"", "nodeAuthor": "Abinash09", "nodeAuth_1": null, "nodeAuth_2": "2014-09-13T07:52:13Z" }, "geometry": { "type": "Point", "coordinates": [ 85.3454162, 27.7168069 ] } },
{ "type": "Feature", "properties": { "osm_id": "3074567419", "name": null, "barrier": null, "highway": "street_lamp", "ref": null, "address": null, "is_in": null, "place": null, "man_made": null, "other_tags": null, "nodeAuthor": "Abinash09", "nodeAuth_1": null, "nodeAuth_2": "2014-09-13T07:52:13Z" }, "geometry": { "type": "Point", "coordinates": [ 85.3454024, 27.7168253 ] } },
{ "type": "Feature", "properties": { "osm_id": "3074567648", "name": "Kanchan Pharmacy", "barrier": null, "highway": null, "ref": null, "address": null, "is_in": null, "place": null, "man_made": null, "other_tags": "\"amenity\"=>\"pharmacy\"", "nodeAuthor": "abishek shrestha", "nodeAuth_1": null, "nodeAuth_2": "2014-09-13T07:50:08Z" }, "geometry": { "type": "Point", "coordinates": [ 85.3453957, 27.7168291 ] } },
{ "type": "Feature", "properties": { "osm_id": "3074567649", "name": null, "barrier": null, "highway": "street_lamp", "ref": null, "address": null, "is_in": null, "place": null, "man_made": null, "other_tags": null, "nodeAuthor": "abishek shrestha", "nodeAuth_1": null, "nodeAuth_2": "2014-09-13T07:50:08Z" }, "geometry": { "type": "Point", "coordinates": [ 85.3454048, 27.7168254 ] } },
{ "type": "Feature", "properties": { "osm_id": "3074567650", "name": null, "barrier": null, "highway": "street_lamp", "ref": null, "address": null, "is_in": null, "place": null, "man_made": null, "other_tags": null, "nodeAuthor": "abishek shrestha", "nodeAuth_1": null, "nodeAuth_2": "2014-09-13T07:50:08Z" }, "geometry": { "type": "Point", "coordinates": [ 85.3454773, 27.7175489 ] } },
{ "type": "Feature", "properties": { "osm_id": "3074567652", "name": null, "barrier": null, "highway": "street_lamp", "ref": null, "address": null, "is_in": null, "place": null, "man_made": null, "other_tags": null, "nodeAuthor": "abishek shrestha", "nodeAuth_1": null, "nodeAuth_2": "2014-09-13T07:50:08Z" }, "geometry": { "type": "Point", "coordinates": [ 85.3455389, 27.7177148 ] } },
{ "type": "Feature", "properties": { "osm_id": "3074568729", "name": "Siddha aluminium fabrication and interior", "barrier": null, "highway": null, "ref": null, "address": null, "is_in": null, "place": null, "man_made": null, "other_tags": "\"shop\"=>\"welding\"", "nodeAuthor": "ashishmittal1991", "nodeAuth_1": null, "nodeAuth_2": "2014-09-13T07:54:21Z" }, "geometry": { "type": "Point", "coordinates": [ 85.3468281, 27.7127239 ] } },
{ "type": "Feature", "properties": { "osm_id": "3074569076", "name": "Shree Kumari Mandir", "barrier": null, "highway": null, "ref": null, "address": null, "is_in": null, "place": null, "man_made": null, "other_tags": "\"amenity\"=>\"place_of_worship\",\"opening_hours\"=>\"24\/7\",\"religion\"=>\"hindu\"", "nodeAuthor": "aayushma", "nodeAuth_1": null, "nodeAuth_2": "2014-09-13T07:54:21Z" }, "geometry": { "type": "Point", "coordinates": [ 85.349376, 27.7166076 ] } },
{ "type": "Feature", "properties": { "osm_id": "3074569080", "name": null, "barrier": null, "highway": "street_lamp", "ref": null, "address": null, "is_in": null, "place": null, "man_made": null, "other_tags": null, "nodeAuthor": "aayushma", "nodeAuth_1": null, "nodeAuth_2": "2014-09-13T07:54:21Z" }, "geometry": { "type": "Point", "coordinates": [ 85.3483198, 27.7161204 ] } },
{ "type": "Feature", "properties": { "osm_id": "3074569083", "name": null, "barrier": null, "highway": "street_lamp", "ref": null, "address": null, "is_in": null, "place": null, "man_made": null, "other_tags": null, "nodeAuthor": "aayushma", "nodeAuth_1": null, "nodeAuth_2": "2014-09-13T07:54:21Z" }, "geometry": { "type": "Point", "coordinates": [ 85.3484974, 27.716415 ] } },
{ "type": "Feature", "properties": { "osm_id": "3074569084", "name": null, "barrier": null, "highway": "street_lamp", "ref": null, "address": null, "is_in": null, "place": null, "man_made": null, "other_tags": null, "nodeAuthor": "aayushma", "nodeAuth_1": null, "nodeAuth_2": "2014-09-13T07:54:21Z" }, "geometry": { "type": "Point", "coordinates": [ 85.3485253, 27.7164764 ] } },
{ "type": "Feature", "properties": { "osm_id": "3074569085", "name": null, "barrier": null, "highway": "street_lamp", "ref": null, "address": null, "is_in": null, "place": null, "man_made": null, "other_tags": null, "nodeAuthor": "aayushma", "nodeAuth_1": null, "nodeAuth_2": "2014-09-13T07:54:21Z" }, "geometry": { "type": "Point", "coordinates": [ 85.3485661, 27.7167182 ] } },
{ "type": "Feature", "properties": { "osm_id": "3074569087", "name": null, "barrier": null, "highway": "street_lamp", "ref": null, "address": null, "is_in": null, "place": null, "man_made": null, "other_tags": null, "nodeAuthor": "aayushma", "nodeAuth_1": null, "nodeAuth_2": "2014-09-13T07:54:21Z" }, "geometry": { "type": "Point", "coordinates": [ 85.3485874, 27.7167855 ] } },
{ "type": "Feature", "properties": { "osm_id": "3074569088", "name": null, "barrier": null, "highway": "street_lamp", "ref": null, "address": null, "is_in": null, "place": null, "man_made": null, "other_tags": null, "nodeAuthor": "aayushma", "nodeAuth_1": null, "nodeAuth_2": "2014-09-13T07:54:21Z" }, "geometry": { "type": "Point", "coordinates": [ 85.3483178, 27.7170495 ] } },
{ "type": "Feature", "properties": { "osm_id": "3074569089", "name": null, "barrier": null, "highway": "street_lamp", "ref": null, "address": null, "is_in": null, "place": null, "man_made": null, "other_tags": null, "nodeAuthor": "aayushma", "nodeAuth_1": null, "nodeAuth_2": "2014-09-13T07:54:21Z" }, "geometry": { "type": "Point", "coordinates": [ 85.3478491, 27.7173872 ] } },
{ "type": "Feature", "properties": { "osm_id": "3074569162", "name": null, "barrier": null, "highway": "street_lamp", "ref": null, "address": null, "is_in": null, "place": null, "man_made": null, "other_tags": null, "nodeAuthor": "Akash Mainali", "nodeAuth_1": null, "nodeAuth_2": "2014-09-13T07:55:33Z" }, "geometry": { "type": "Point", "coordinates": [ 85.3484663, 27.7140534 ] } },
{ "type": "Feature", "properties": { "osm_id": "3074569176", "name": "Siddhartha Buddha Dental Clinic", "barrier": null, "highway": null, "ref": null, "address": null, "is_in": null, "place": null, "man_made": null, "other_tags": "\"amenity\"=>\"clinic\"", "nodeAuthor": "Abinash09", "nodeAuth_1": null, "nodeAuth_2": "2014-09-13T08:04:32Z" }, "geometry": { "type": "Point", "coordinates": [ 85.3459057, 27.7170063 ] } },
{ "type": "Feature", "properties": { "osm_id": "3074569177", "name": null, "barrier": null, "highway": "street_lamp", "ref": null, "address": null, "is_in": null, "place": null, "man_made": null, "other_tags": null, "nodeAuthor": "Abinash09", "nodeAuth_1": null, "nodeAuth_2": "2014-09-13T08:04:32Z" }, "geometry": { "type": "Point", "coordinates": [ 85.3458152, 27.7169709 ] } },
{ "type": "Feature", "properties": { "osm_id": "3074569178", "name": null, "barrier": null, "highway": null, "ref": null, "address": null, "is_in": null, "place": null, "man_made": null, "other_tags": "\"amenity\"=>\"place_of_worship\",\"building\"=>\"temple\",\"religion\"=>\"Hindu\"", "nodeAuthor": "Abinash09", "nodeAuth_1": null, "nodeAuth_2": "2014-09-13T08:04:32Z" }, "geometry": { "type": "Point", "coordinates": [ 85.3458127, 27.7169907 ] } },
{ "type": "Feature", "properties": { "osm_id": "3074569179", "name": null, "barrier": null, "highway": "street_lamp", "ref": null, "address": null, "is_in": null, "place": null, "man_made": null, "other_tags": null, "nodeAuthor": "Abinash09", "nodeAuth_1": null, "nodeAuth_2": "2014-09-13T08:04:32Z" }, "geometry": { "type": "Point", "coordinates": [ 85.3462254, 27.7170099 ] } },
{ "type": "Feature", "properties": { "osm_id": "3074569180", "name": null, "barrier": null, "highway": "street_lamp", "ref": null, "address": null, "is_in": null, "place": null, "man_made": null, "other_tags": null, "nodeAuthor": "Abinash09", "nodeAuth_1": null, "nodeAuth_2": "2014-09-13T08:04:32Z" }, "geometry": { "type": "Point", "coordinates": [ 85.3459894, 27.7170115 ] } },
{ "type": "Feature", "properties": { "osm_id": "3074569181", "name": null, "barrier": null, "highway": "traffic_signals", "ref": null, "address": null, "is_in": null, "place": null, "man_made": null, "other_tags": "\"traffic_signals\"=>\"backward\"", "nodeAuthor": "Abinash09", "nodeAuth_1": null, "nodeAuth_2": "2014-09-13T08:04:32Z" }, "geometry": { "type": "Point", "coordinates": [ 85.3464426, 27.7170545 ] } },
{ "type": "Feature", "properties": { "osm_id": "3074569182", "name": null, "barrier": null, "highway": null, "ref": null, "address": null, "is_in": null, "place": null, "man_made": null, "other_tags": "\"manhole\"=>\"sewer\"", "nodeAuthor": "Abinash09", "nodeAuth_1": null, "nodeAuth_2": "2014-09-13T08:04:32Z" }, "geometry": { "type": "Point", "coordinates": [ 85.3464388, 27.717059 ] } },
{ "type": "Feature", "properties": { "osm_id": "3074569183", "name": null, "barrier": null, "highway": null, "ref": null, "address": null, "is_in": null, "place": null, "man_made": null, "other_tags": "\"amenity\"=>\"remittance\"", "nodeAuthor": "Abinash09", "nodeAuth_1": null, "nodeAuth_2": "2014-09-13T08:04:32Z" }, "geometry": { "type": "Point", "coordinates": [ 85.345828, 27.7171101 ] } },
{ "type": "Feature", "properties": { "osm_id": "3074569184", "name": null, "barrier": null, "highway": null, "ref": null, "address": null, "is_in": null, "place": null, "man_made": null, "other_tags": "\"amenity\"=>\"remittance\"", "nodeAuthor": "Abinash09", "nodeAuth_1": null, "nodeAuth_2": "2014-09-13T08:04:32Z" }, "geometry": { "type": "Point", "coordinates": [ 85.3458103, 27.7171178 ] } },
{ "type": "Feature", "properties": { "osm_id": "3074569185", "name": null, "barrier": null, "highway": null, "ref": null, "address": null, "is_in": null, "place": null, "man_made": null, "other_tags": "\"office\"=>\"cooperative\"", "nodeAuthor": "Abinash09", "nodeAuth_1": null, "nodeAuth_2": "2014-09-13T08:04:32Z" }, "geometry": { "type": "Point", "coordinates": [ 85.3457666, 27.7171319 ] } },
{ "type": "Feature", "properties": { "osm_id": "3074569186", "name": null, "barrier": null, "highway": null, "ref": null, "address": null, "is_in": null, "place": null, "man_made": null, "other_tags": "\"amenity\"=>\"remittance\"", "nodeAuthor": "Abinash09", "nodeAuth_1": null, "nodeAuth_2": "2014-09-13T08:04:32Z" }, "geometry": { "type": "Point", "coordinates": [ 85.3456968, 27.7171605 ] } },
{ "type": "Feature", "properties": { "osm_id": "3074569236", "name": null, "barrier": null, "highway": "street_lamp", "ref": null, "address": null, "is_in": null, "place": null, "man_made": null, "other_tags": null, "nodeAuthor": "sujan prajapati", "nodeAuth_1": null, "nodeAuth_2": "2014-09-13T07:54:40Z" }, "geometry": { "type": "Point", "coordinates": [ 85.3494159, 27.7149874 ] } },
{ "type": "Feature", "properties": { "osm_id": "3074569308", "name": "Siphal Pharmacy", "barrier": null, "highway": null, "ref": null, "address": null, "is_in": null, "place": null, "man_made": null, "other_tags": "\"amenity\"=>\"pharmacy\",\"dispensing\"=>\"yes\"", "nodeAuthor": "rupa12", "nodeAuth_1": null, "nodeAuth_2": "2014-09-13T08:02:46Z" }, "geometry": { "type": "Point", "coordinates": [ 85.3406226, 27.7120785 ] } },
{ "type": "Feature", "properties": { "osm_id": "3074569309", "name": "Badminton Court", "barrier": null, "highway": null, "ref": null, "address": null, "is_in": null, "place": null, "man_made": null, "other_tags": "\"leisure\"=>\"playground\"", "nodeAuthor": "amytraj", "nodeAuth_1": null, "nodeAuth_2": "2014-09-13T08:06:56Z" }, "geometry": { "type": "Point", "coordinates": [ 85.3381918, 27.7091751 ] } },
{ "type": "Feature", "properties": { "osm_id": "3074569310", "name": "Baram and Basel Furniture Showroom", "barrier": null, "highway": null, "ref": null, "address": null, "is_in": null, "place": null, "man_made": null, "other_tags": "\"shop\"=>\"furniture\"", "nodeAuthor": "amytraj", "nodeAuth_1": null, "nodeAuth_2": "2014-09-13T08:06:56Z" }, "geometry": { "type": "Point", "coordinates": [ 85.3395475, 27.708067 ] } },
{ "type": "Feature", "properties": { "osm_id": "3074569311", "name": "Bhairab Mandir", "barrier": null, "highway": null, "ref": null, "address": null, "is_in": null, "place": null, "man_made": null, "other_tags": "\"historic\"=>\"wayside_shrine\"", "nodeAuthor": "amytraj", "nodeAuth_1": null, "nodeAuth_2": "2014-09-13T08:06:56Z" }, "geometry": { "type": "Point", "coordinates": [ 85.339716, 27.7094976 ] } },
{ "type": "Feature", "properties": { "osm_id": "3074569312", "name": "Fruit Store", "barrier": null, "highway": null, "ref": null, "address": null, "is_in": null, "place": null, "man_made": null, "other_tags": "\"shop\"=>\"greengrocer\"", "nodeAuthor": "amytraj", "nodeAuth_1": null, "nodeAuth_2": "2014-09-13T08:06:56Z" }, "geometry": { "type": "Point", "coordinates": [ 85.3380299, 27.7081298 ] } },
{ "type": "Feature", "properties": { "osm_id": "3074569313", "name": "Kirana Pasal", "barrier": null, "highway": null, "ref": null, "address": null, "is_in": null, "place": null, "man_made": null, "other_tags": "\"shop\"=>\"convenience\"", "nodeAuthor": "amytraj", "nodeAuth_1": null, "nodeAuth_2": "2014-09-13T08:06:56Z" }, "geometry": { "type": "Point", "coordinates": [ 85.3381765, 27.7093268 ] } },
{ "type": "Feature", "properties": { "osm_id": "3074569314", "name": "Logo Girls Hostel", "barrier": null, "highway": null, "ref": null, "address": null, "is_in": null, "place": null, "man_made": null, "other_tags": "\"tourism\"=>\"hostel\"", "nodeAuthor": "amytraj", "nodeAuth_1": null, "nodeAuth_2": "2014-09-13T08:06:56Z" }, "geometry": { "type": "Point", "coordinates": [ 85.3377808, 27.7082842 ] } },
{ "type": "Feature", "properties": { "osm_id": "3074569315", "name": "Mahalaxmi Finance", "barrier": null, "highway": null, "ref": null, "address": null, "is_in": null, "place": null, "man_made": null, "other_tags": "\"amenity\"=>\"bank\",\"atm\"=>\"no\",\"survelliance\"=>\"indoor\"", "nodeAuthor": "amytraj", "nodeAuth_1": null, "nodeAuth_2": "2014-09-13T08:06:56Z" }, "geometry": { "type": "Point", "coordinates": [ 85.3384195, 27.70827 ] } },
{ "type": "Feature", "properties": { "osm_id": "3074569316", "name": "Maharajan Stores and Gift Shop", "barrier": null, "highway": null, "ref": null, "address": null, "is_in": null, "place": null, "man_made": null, "other_tags": "\"shop\"=>\"furniture\"", "nodeAuthor": "amytraj", "nodeAuth_1": null, "nodeAuth_2": "2014-09-13T08:06:56Z" }, "geometry": { "type": "Point", "coordinates": [ 85.3382378, 27.7081182 ] } },
{ "type": "Feature", "properties": { "osm_id": "3074569317", "name": "Meat SHop", "barrier": null, "highway": null, "ref": null, "address": null, "is_in": null, "place": null, "man_made": null, "other_tags": "\"shop\"=>\"butcher\"", "nodeAuthor": "amytraj", "nodeAuth_1": null, "nodeAuth_2": "2014-09-13T08:06:56Z" }, "geometry": { "type": "Point", "coordinates": [ 85.3381319, 27.7081431 ] } },
{ "type": "Feature", "properties": { "osm_id": "3074569318", "name": "My trip to Nepal", "barrier": null, "highway": null, "ref": null, "address": null, "is_in": null, "place": null, "man_made": null, "other_tags": "\"shop\"=>\"travel_agency\"", "nodeAuthor": "amytraj", "nodeAuth_1": null, "nodeAuth_2": "2014-09-13T08:06:56Z" }, "geometry": { "type": "Point", "coordinates": [ 85.340303, 27.7081402 ] } },
{ "type": "Feature", "properties": { "osm_id": "3074569319", "name": "Newaaz cafe", "barrier": null, "highway": null, "ref": null, "address": null, "is_in": null, "place": null, "man_made": null, "other_tags": "\"amenity\"=>\"cafe\"", "nodeAuthor": "amytraj", "nodeAuth_1": null, "nodeAuth_2": "2014-09-13T08:06:56Z" }, "geometry": { "type": "Point", "coordinates": [ 85.3399227, 27.708086 ] } },
{ "type": "Feature", "properties": { "osm_id": "3074569320", "name": "Om sai Beauty Parlour", "barrier": null, "highway": null, "ref": null, "address": null, "is_in": null, "place": null, "man_made": null, "other_tags": "\"shop\"=>\"beauty\"", "nodeAuthor": "amytraj", "nodeAuth_1": null, "nodeAuth_2": "2014-09-13T08:06:56Z" }, "geometry": { "type": "Point", "coordinates": [ 85.338204, 27.7081364 ] } },
{ "type": "Feature", "properties": { "osm_id": "3074569321", "name": "Paneku tole Mandir", "barrier": null, "highway": null, "ref": null, "address": null, "is_in": null, "place": null, "man_made": null, "other_tags": "\"amenity\"=>\"place_of_worship\",\"religion\"=>\"hindu\"", "nodeAuthor": "amytraj", "nodeAuth_1": null, "nodeAuth_2": "2014-09-13T08:06:56Z" }, "geometry": { "type": "Point", "coordinates": [ 85.3390972, 27.7092052 ] } },
{ "type": "Feature", "properties": { "osm_id": "3074569459", "name": "New kuwar suppliers", "barrier": null, "highway": null, "ref": null, "address": null, "is_in": null, "place": null, "man_made": null, "other_tags": "\"shop\"=>\"electronics\"", "nodeAuthor": "Aman Maharjan", "nodeAuth_1": null, "nodeAuth_2": "2014-09-13T07:57:07Z" }, "geometry": { "type": "Point", "coordinates": [ 85.3399034, 27.7097837 ] } },
{ "type": "Feature", "properties": { "osm_id": "3074569534", "name": null, "barrier": null, "highway": "street_lamp", "ref": null, "address": null, "is_in": null, "place": null, "man_made": null, "other_tags": null, "nodeAuthor": "Shaishab Kishor Shrestha", "nodeAuth_1": null, "nodeAuth_2": "2014-09-13T08:00:41Z" }, "geometry": { "type": "Point", "coordinates": [ 85.3433141, 27.7156439 ] } },
{ "type": "Feature", "properties": { "osm_id": "3074569539", "name": "Devi Mandir", "barrier": null, "highway": null, "ref": null, "address": null, "is_in": null, "place": null, "man_made": null, "other_tags": "\"historic\"=>\"monument\"", "nodeAuthor": "rupa12", "nodeAuth_1": null, "nodeAuth_2": "2014-09-13T08:02:07Z" }, "geometry": { "type": "Point", "coordinates": [ 85.340802, 27.7119958 ] } },
{ "type": "Feature", "properties": { "osm_id": "3074569540", "name": "NJYCN Fitness Center", "barrier": null, "highway": null, "ref": null, "address": null, "is_in": null, "place": null, "man_made": null, "other_tags": "\"sport\"=>\"gymnastics\"", "nodeAuthor": "rupa12", "nodeAuth_1": null, "nodeAuth_2": "2014-09-13T08:02:07Z" }, "geometry": { "type": "Point", "coordinates": [ 85.3408835, 27.7119882 ] } },
{ "type": "Feature", "properties": { "osm_id": "3074569561", "name": null, "barrier": null, "highway": null, "ref": null, "address": null, "is_in": null, "place": null, "man_made": null, "other_tags": "\"shop\"=>\"convenience\"", "nodeAuthor": "Kristan Shrestha", "nodeAuth_1": null, "nodeAuth_2": "2014-09-13T08:02:27Z" }, "geometry": { "type": "Point", "coordinates": [ 85.3413813, 27.7165293 ] } },
{ "type": "Feature", "properties": { "osm_id": "3074570572", "name": "Bandana", "barrier": null, "highway": null, "ref": null, "address": null, "is_in": null, "place": null, "man_made": null, "other_tags": "\"shop\"=>\"beauty\"", "nodeAuthor": "Sazeeta", "nodeAuth_1": null, "nodeAuth_2": "2014-09-13T07:59:23Z" }, "geometry": { "type": "Point", "coordinates": [ 85.3416201, 27.7158095 ] } },
{ "type": "Feature", "properties": { "osm_id": "3074570579", "name": null, "barrier": null, "highway": null, "ref": null, "address": null, "is_in": null, "place": null, "man_made": null, "other_tags": "\"shop\"=>\"convenience\"", "nodeAuthor": "Sazeeta", "nodeAuth_1": null, "nodeAuth_2": "2014-09-13T07:59:23Z" }, "geometry": { "type": "Point", "coordinates": [ 85.3417641, 27.7160707 ] } },
{ "type": "Feature", "properties": { "osm_id": "3074570590", "name": null, "barrier": null, "highway": null, "ref": null, "address": null, "is_in": null, "place": null, "man_made": null, "other_tags": "\"shop\"=>\"convenience\"", "nodeAuthor": "Sazeeta", "nodeAuth_1": null, "nodeAuth_2": "2014-09-13T07:59:24Z" }, "geometry": { "type": "Point", "coordinates": [ 85.3406325, 27.7163663 ] } },
{ "type": "Feature", "properties": { "osm_id": "3074570592", "name": null, "barrier": null, "highway": null, "ref": null, "address": null, "is_in": null, "place": null, "man_made": null, "other_tags": "\"shop\"=>\"convenience\"", "nodeAuthor": "Sazeeta", "nodeAuth_1": null, "nodeAuth_2": "2014-09-13T07:59:24Z" }, "geometry": { "type": "Point", "coordinates": [ 85.3419769, 27.7164232 ] } },
{ "type": "Feature", "properties": { "osm_id": "3074570593", "name": null, "barrier": null, "highway": null, "ref": null, "address": null, "is_in": null, "place": null, "man_made": null, "other_tags": "\"shop\"=>\"convenience\"", "nodeAuthor": "Sazeeta", "nodeAuth_1": null, "nodeAuth_2": "2014-09-13T07:59:24Z" }, "geometry": { "type": "Point", "coordinates": [ 85.3419618, 27.7164849 ] } },
{ "type": "Feature", "properties": { "osm_id": "3074570594", "name": null, "barrier": null, "highway": null, "ref": null, "address": null, "is_in": null, "place": null, "man_made": null, "other_tags": "\"shop\"=>\"convenience\"", "nodeAuthor": "Sazeeta", "nodeAuth_1": null, "nodeAuth_2": "2014-09-13T07:59:24Z" }, "geometry": { "type": "Point", "coordinates": [ 85.3409331, 27.7167504 ] } },
{ "type": "Feature", "properties": { "osm_id": "3074570595", "name": null, "barrier": null, "highway": null, "ref": null, "address": null, "is_in": null, "place": null, "man_made": null, "other_tags": "\"shop\"=>\"convenience\"", "nodeAuthor": "Sazeeta", "nodeAuth_1": null, "nodeAuth_2": "2014-09-13T07:59:24Z" }, "geometry": { "type": "Point", "coordinates": [ 85.3411525, 27.7168197 ] } },
{ "type": "Feature", "properties": { "osm_id": "3074570596", "name": null, "barrier": null, "highway": null, "ref": null, "address": null, "is_in": null, "place": null, "man_made": null, "other_tags": "\"shop\"=>\"convenience\"", "nodeAuthor": "Sazeeta", "nodeAuth_1": null, "nodeAuth_2": "2014-09-13T07:59:24Z" }, "geometry": { "type": "Point", "coordinates": [ 85.341488, 27.7168228 ] } },
{ "type": "Feature", "properties": { "osm_id": "3074575536", "name": null, "barrier": null, "highway": null, "ref": null, "address": null, "is_in": null, "place": null, "man_made": null, "other_tags": "\"office\"=>\"cooperative\"", "nodeAuthor": "Abinash09", "nodeAuth_1": null, "nodeAuth_2": "2014-09-13T08:05:41Z" }, "geometry": { "type": "Point", "coordinates": [ 85.3453731, 27.717213 ] } },
{ "type": "Feature", "properties": { "osm_id": "3074575795", "name": "classic electronics", "barrier": null, "highway": null, "ref": null, "address": null, "is_in": null, "place": null, "man_made": null, "other_tags": "\"shop\"=>\"electronics\"", "nodeAuthor": "richa15", "nodeAuth_1": null, "nodeAuth_2": "2014-09-13T08:05:39Z" }, "geometry": { "type": "Point", "coordinates": [ 85.3470538, 27.7171671 ] } },
{ "type": "Feature", "properties": { "osm_id": "3074575796", "name": "gupta and gupta sweet shop", "barrier": null, "highway": null, "ref": null, "address": null, "is_in": null, "place": null, "man_made": null, "other_tags": "\"amenity\"=>\"restaurant\"", "nodeAuthor": "richa15", "nodeAuth_1": null, "nodeAuth_2": "2014-09-13T08:05:39Z" }, "geometry": { "type": "Point", "coordinates": [ 85.3464506, 27.7163804 ] } },
{ "type": "Feature", "properties": { "osm_id": "3074575797", "name": null, "barrier": null, "highway": "street_lamp", "ref": null, "address": null, "is_in": null, "place": null, "man_made": null, "other_tags": null, "nodeAuthor": "richa15", "nodeAuth_1": null, "nodeAuth_2": "2014-09-13T08:05:39Z" }, "geometry": { "type": "Point", "coordinates": [ 85.3467453, 27.7152078 ] } },
{ "type": "Feature", "properties": { "osm_id": "3074575798", "name": null, "barrier": null, "highway": null, "ref": null, "address": null, "is_in": null, "place": null, "man_made": null, "other_tags": "\"power\"=>\"pole\",\"transformer\"=>\"yes\"", "nodeAuthor": "richa15", "nodeAuth_1": null, "nodeAuth_2": "2014-09-13T08:05:39Z" }, "geometry": { "type": "Point", "coordinates": [ 85.3467041, 27.7154736 ] } },
{ "type": "Feature", "properties": { "osm_id": "3074575799", "name": null, "barrier": null, "highway": "street_lamp", "ref": null, "address": null, "is_in": null, "place": null, "man_made": null, "other_tags": null, "nodeAuthor": "richa15", "nodeAuth_1": null, "nodeAuth_2": "2014-09-13T08:05:39Z" }, "geometry": { "type": "Point", "coordinates": [ 85.3463907, 27.7160131 ] } },
{ "type": "Feature", "properties": { "osm_id": "3074575800", "name": null, "barrier": null, "highway": "street_lamp", "ref": null, "address": null, "is_in": null, "place": null, "man_made": null, "other_tags": null, "nodeAuthor": "richa15", "nodeAuth_1": null, "nodeAuth_2": "2014-09-13T08:05:39Z" }, "geometry": { "type": "Point", "coordinates": [ 85.3467705, 27.716347 ] } },
{ "type": "Feature", "properties": { "osm_id": "3074575801", "name": null, "barrier": null, "highway": "street_lamp", "ref": null, "address": null, "is_in": null, "place": null, "man_made": null, "other_tags": null, "nodeAuthor": "richa15", "nodeAuth_1": null, "nodeAuth_2": "2014-09-13T08:05:39Z" }, "geometry": { "type": "Point", "coordinates": [ 85.3464077, 27.7163693 ] } },
{ "type": "Feature", "properties": { "osm_id": "3074575802", "name": null, "barrier": null, "highway": null, "ref": null, "address": null, "is_in": null, "place": null, "man_made": null, "other_tags": "\"power\"=>\"pole\",\"transformer\"=>\"yes\"", "nodeAuthor": "richa15", "nodeAuth_1": null, "nodeAuth_2": "2014-09-13T08:05:39Z" }, "geometry": { "type": "Point", "coordinates": [ 85.3464429, 27.7164127 ] } },
{ "type": "Feature", "properties": { "osm_id": "3074575803", "name": null, "barrier": null, "highway": null, "ref": null, "address": null, "is_in": null, "place": null, "man_made": null, "other_tags": "\"shop\"=>\"convenience\"", "nodeAuthor": "richa15", "nodeAuth_1": null, "nodeAuth_2": "2014-09-13T08:05:39Z" }, "geometry": { "type": "Point", "coordinates": [ 85.3465155, 27.7164427 ] } },
{ "type": "Feature", "properties": { "osm_id": "3074575804", "name": null, "barrier": null, "highway": null, "ref": null, "address": null, "is_in": null, "place": null, "man_made": null, "other_tags": "\"shop\"=>\"convenience\"", "nodeAuthor": "richa15", "nodeAuth_1": null, "nodeAuth_2": "2014-09-13T08:05:39Z" }, "geometry": { "type": "Point", "coordinates": [ 85.3465262, 27.7165013 ] } },
{ "type": "Feature", "properties": { "osm_id": "3074575805", "name": null, "barrier": null, "highway": null, "ref": null, "address": null, "is_in": null, "place": null, "man_made": null, "other_tags": "\"shop\"=>\"convenience\"", "nodeAuthor": "richa15", "nodeAuth_1": null, "nodeAuth_2": "2014-09-13T08:05:39Z" }, "geometry": { "type": "Point", "coordinates": [ 85.346655, 27.7167672 ] } },
{ "type": "Feature", "properties": { "osm_id": "3074575806", "name": null, "barrier": null, "highway": null, "ref": null, "address": null, "is_in": null, "place": null, "man_made": null, "other_tags": "\"shop\"=>\"convenience\"", "nodeAuthor": "richa15", "nodeAuth_1": null, "nodeAuth_2": "2014-09-13T08:05:39Z" }, "geometry": { "type": "Point", "coordinates": [ 85.34681, 27.7169612 ] } },
{ "type": "Feature", "properties": { "osm_id": "3074575807", "name": null, "barrier": null, "highway": null, "ref": null, "address": null, "is_in": null, "place": null, "man_made": null, "other_tags": "\"shop\"=>\"convenience\"", "nodeAuthor": "richa15", "nodeAuth_1": null, "nodeAuth_2": "2014-09-13T08:05:39Z" }, "geometry": { "type": "Point", "coordinates": [ 85.3468897, 27.7170486 ] } },
{ "type": "Feature", "properties": { "osm_id": "3074575808", "name": null, "barrier": null, "highway": null, "ref": null, "address": null, "is_in": null, "place": null, "man_made": null, "other_tags": "\"shop\"=>\"convenience\"", "nodeAuthor": "richa15", "nodeAuth_1": null, "nodeAuth_2": "2014-09-13T08:05:39Z" }, "geometry": { "type": "Point", "coordinates": [ 85.3469314, 27.7171034 ] } },
{ "type": "Feature", "properties": { "osm_id": "3074575809", "name": null, "barrier": null, "highway": "traffic_signals", "ref": null, "address": null, "is_in": null, "place": null, "man_made": null, "other_tags": "\"traffic_signals\"=>\"backward\"", "nodeAuthor": "richa15", "nodeAuth_1": null, "nodeAuth_2": "2014-09-13T08:05:39Z" }, "geometry": { "type": "Point", "coordinates": [ 85.346934, 27.7171448 ] } },
{ "type": "Feature", "properties": { "osm_id": "3074575810", "name": null, "barrier": null, "highway": "street_lamp", "ref": null, "address": null, "is_in": null, "place": null, "man_made": null, "other_tags": null, "nodeAuthor": "richa15", "nodeAuth_1": null, "nodeAuth_2": "2014-09-13T08:05:39Z" }, "geometry": { "type": "Point", "coordinates": [ 85.3469715, 27.7171938 ] } },
{ "type": "Feature", "properties": { "osm_id": "3074575811", "name": null, "barrier": null, "highway": null, "ref": null, "address": null, "is_in": null, "place": null, "man_made": null, "other_tags": "\"craft\"=>\"photographic_laboratory\"", "nodeAuthor": "richa15", "nodeAuth_1": null, "nodeAuth_2": "2014-09-13T08:05:39Z" }, "geometry": { "type": "Point", "coordinates": [ 85.3471111, 27.7172035 ] } },
{ "type": "Feature", "properties": { "osm_id": "3074575812", "name": null, "barrier": null, "highway": null, "ref": null, "address": null, "is_in": null, "place": null, "man_made": null, "other_tags": "\"shop\"=>\"convenience\"", "nodeAuthor": "richa15", "nodeAuth_1": null, "nodeAuth_2": "2014-09-13T08:05:40Z" }, "geometry": { "type": "Point", "coordinates": [ 85.3471642, 27.7172214 ] } },
{ "type": "Feature", "properties": { "osm_id": "3074575813", "name": null, "barrier": null, "highway": null, "ref": null, "address": null, "is_in": null, "place": null, "man_made": null, "other_tags": "\"shop\"=>\"convenience\"", "nodeAuthor": "richa15", "nodeAuth_1": null, "nodeAuth_2": "2014-09-13T08:05:40Z" }, "geometry": { "type": "Point", "coordinates": [ 85.3473133, 27.7173237 ] } },
{ "type": "Feature", "properties": { "osm_id": "3074575814", "name": null, "barrier": null, "highway": "street_lamp", "ref": null, "address": null, "is_in": null, "place": null, "man_made": null, "other_tags": null, "nodeAuthor": "richa15", "nodeAuth_1": null, "nodeAuth_2": "2014-09-13T08:05:40Z" }, "geometry": { "type": "Point", "coordinates": [ 85.3473677, 27.7174088 ] } },
{ "type": "Feature", "properties": { "osm_id": "3074575816", "name": "peepal bot", "barrier": null, "highway": null, "ref": null, "address": null, "is_in": null, "place": null, "man_made": null, "other_tags": "\"historic\"=>\"wayside_shrine\",\"natural\"=>\"tree\"", "nodeAuthor": "richa15", "nodeAuth_1": null, "nodeAuth_2": "2014-09-13T08:05:40Z" }, "geometry": { "type": "Point", "coordinates": [ 85.3464047, 27.716101 ] } },
{ "type": "Feature", "properties": { "osm_id": "3074575817", "name": "real classic jewelers", "barrier": null, "highway": null, "ref": null, "address": null, "is_in": null, "place": null, "man_made": null, "other_tags": "\"shop\"=>\"jewelry\"", "nodeAuthor": "richa15", "nodeAuth_1": null, "nodeAuth_2": "2014-09-13T08:05:40Z" }, "geometry": { "type": "Point", "coordinates": [ 85.3465495, 27.7165693 ] } },
{ "type": "Feature", "properties": { "osm_id": "3074575818", "name": "sri nath collection", "barrier": null, "highway": null, "ref": null, "address": null, "is_in": null, "place": null, "man_made": null, "other_tags": "\"shop\"=>\"convenience\"", "nodeAuthor": "richa15", "nodeAuth_1": null, "nodeAuth_2": "2014-09-13T08:05:40Z" }, "geometry": { "type": "Point", "coordinates": [ 85.347235, 27.7172763 ] } },
{ "type": "Feature", "properties": { "osm_id": "3074575819", "name": "surya mukhi jewelers", "barrier": null, "highway": null, "ref": null, "address": null, "is_in": null, "place": null, "man_made": null, "other_tags": "\"shop\"=>\"jewelry\"", "nodeAuthor": "richa15", "nodeAuth_1": null, "nodeAuth_2": "2014-09-13T08:05:40Z" }, "geometry": { "type": "Point", "coordinates": [ 85.346983, 27.7171301 ] } },
{ "type": "Feature", "properties": { "osm_id": "3074575820", "name": "Fish House", "barrier": null, "highway": null, "ref": null, "address": null, "is_in": null, "place": null, "man_made": null, "other_tags": "\"shop\"=>\"seafood\"", "nodeAuthor": "rupa12", "nodeAuth_1": null, "nodeAuth_2": "2014-09-13T08:06:06Z" }, "geometry": { "type": "Point", "coordinates": [ 85.3401164, 27.7122838 ] } },
{ "type": "Feature", "properties": { "osm_id": "3074575821", "name": "Sharma Motorcycle Workshop", "barrier": null, "highway": null, "ref": null, "address": null, "is_in": null, "place": null, "man_made": null, "other_tags": "\"shop\"=>\"motorcycle\"", "nodeAuthor": "rupa12", "nodeAuth_1": null, "nodeAuth_2": "2014-09-13T08:06:06Z" }, "geometry": { "type": "Point", "coordinates": [ 85.3404061, 27.7122344 ] } },
{ "type": "Feature", "properties": { "osm_id": "3074575822", "name": null, "barrier": null, "highway": null, "ref": null, "address": null, "is_in": null, "place": null, "man_made": null, "other_tags": "\"power\"=>\"transformer\"", "nodeAuthor": "rupa12", "nodeAuth_1": null, "nodeAuth_2": "2014-09-13T08:06:06Z" }, "geometry": { "type": "Point", "coordinates": [ 85.3401227, 27.7122514 ] } },
{ "type": "Feature", "properties": { "osm_id": "3074575823", "name": null, "barrier": null, "highway": "street_lamp", "ref": null, "address": null, "is_in": null, "place": null, "man_made": null, "other_tags": null, "nodeAuthor": "rupa12", "nodeAuth_1": null, "nodeAuth_2": "2014-09-13T08:06:06Z" }, "geometry": { "type": "Point", "coordinates": [ 85.3400473, 27.7122848 ] } },
{ "type": "Feature", "properties": { "osm_id": "3074575824", "name": null, "barrier": null, "highway": null, "ref": null, "address": null, "is_in": null, "place": null, "man_made": null, "other_tags": "\"power\"=>\"transformer\"", "nodeAuthor": "rupa12", "nodeAuth_1": null, "nodeAuth_2": "2014-09-13T08:06:06Z" }, "geometry": { "type": "Point", "coordinates": [ 85.339266, 27.7122854 ] } },
{ "type": "Feature", "properties": { "osm_id": "3074575825", "name": null, "barrier": null, "highway": "street_lamp", "ref": null, "address": null, "is_in": null, "place": null, "man_made": null, "other_tags": null, "nodeAuthor": "rupa12", "nodeAuth_1": null, "nodeAuth_2": "2014-09-13T08:06:06Z" }, "geometry": { "type": "Point", "coordinates": [ 85.339836, 27.7123352 ] } },
{ "type": "Feature", "properties": { "osm_id": "3074575826", "name": null, "barrier": null, "highway": "street_lamp", "ref": null, "address": null, "is_in": null, "place": null, "man_made": null, "other_tags": null, "nodeAuthor": "rupa12", "nodeAuth_1": null, "nodeAuth_2": "2014-09-13T08:06:06Z" }, "geometry": { "type": "Point", "coordinates": [ 85.3394745, 27.7123417 ] } },
{ "type": "Feature", "properties": { "osm_id": "3074576209", "name": null, "barrier": null, "highway": null, "ref": null, "address": null, "is_in": null, "place": null, "man_made": "water_well", "other_tags": null, "nodeAuthor": "amytraj", "nodeAuth_1": null, "nodeAuth_2": "2014-09-13T08:06:58Z" }, "geometry": { "type": "Point", "coordinates": [ 85.3393616, 27.7093986 ] } },
{ "type": "Feature", "properties": { "osm_id": "3074576219", "name": null, "barrier": null, "highway": null, "ref": null, "address": null, "is_in": null, "place": null, "man_made": null, "other_tags": null, "nodeAuthor": "amytraj", "nodeAuth_1": null, "nodeAuth_2": "2014-09-13T08:06:58Z" }, "geometry": { "type": "Point", "coordinates": [ 85.3398015, 27.7095709 ] } },
{ "type": "Feature", "properties": { "osm_id": "3074576220", "name": "tube well", "barrier": null, "highway": null, "ref": null, "address": null, "is_in": null, "place": null, "man_made": "water_well", "other_tags": null, "nodeAuthor": "amytraj", "nodeAuth_1": null, "nodeAuth_2": "2014-09-13T08:06:58Z" }, "geometry": { "type": "Point", "coordinates": [ 85.3392863, 27.7095071 ] } },
{ "type": "Feature", "properties": { "osm_id": "3074577219", "name": "Angelic Beauty Parlour and Cosmetic Shop", "barrier": null, "highway": null, "ref": null, "address": null, "is_in": null, "place": null, "man_made": null, "other_tags": "\"shop\"=>\"hairdresser\"", "nodeAuthor": "raaz", "nodeAuth_1": null, "nodeAuth_2": "2014-09-13T08:14:05Z" }, "geometry": { "type": "Point", "coordinates": [ 85.3391661, 27.7122193 ] } },
{ "type": "Feature", "properties": { "osm_id": "3074577220", "name": "Computer Junction And Solution", "barrier": null, "highway": null, "ref": null, "address": null, "is_in": null, "place": null, "man_made": null, "other_tags": "\"shop\"=>\"computer\"", "nodeAuthor": "raaz", "nodeAuth_1": null, "nodeAuth_2": "2014-09-13T08:14:05Z" }, "geometry": { "type": "Point", "coordinates": [ 85.3379601, 27.7109406 ] } },
{ "type": "Feature", "properties": { "osm_id": "3074577221", "name": "Gautam Vojanalaya", "barrier": null, "highway": null, "ref": null, "address": null, "is_in": null, "place": null, "man_made": null, "other_tags": "\"amenity\"=>\"fast_food\"", "nodeAuthor": "raaz", "nodeAuth_1": null, "nodeAuth_2": "2014-09-13T08:14:05Z" }, "geometry": { "type": "Point", "coordinates": [ 85.3379018, 27.7116619 ] } },
{ "type": "Feature", "properties": { "osm_id": "3074577222", "name": "Himalaya Vidyalaya Mandir", "barrier": null, "highway": null, "ref": null, "address": null, "is_in": null, "place": null, "man_made": null, "other_tags": "\"amenity\"=>\"school\"", "nodeAuthor": "raaz", "nodeAuth_1": null, "nodeAuth_2": "2014-09-13T08:14:05Z" }, "geometry": { "type": "Point", "coordinates": [ 85.3387877, 27.7102704 ] } },
{ "type": "Feature", "properties": { "osm_id": "3074577223", "name": "Innovative College of Health Science Pvt. Ltd.", "barrier": null, "highway": null, "ref": null, "address": null, "is_in": null, "place": null, "man_made": null, "other_tags": "\"amenity\"=>\"school\"", "nodeAuthor": "raaz", "nodeAuth_1": null, "nodeAuth_2": "2014-09-13T08:14:05Z" }, "geometry": { "type": "Point", "coordinates": [ 85.340551, 27.7112735 ] } },
{ "type": "Feature", "properties": { "osm_id": "3074577224", "name": "Mithu Cold Store", "barrier": null, "highway": null, "ref": null, "address": null, "is_in": null, "place": null, "man_made": null, "other_tags": "\"shop\"=>\"convenience\"", "nodeAuthor": "raaz", "nodeAuth_1": null, "nodeAuth_2": "2014-09-13T08:14:05Z" }, "geometry": { "type": "Point", "coordinates": [ 85.3407628, 27.7119333 ] } },
{ "type": "Feature", "properties": { "osm_id": "3074577225", "name": "Muskan Resturant Bar", "barrier": null, "highway": null, "ref": null, "address": null, "is_in": null, "place": null, "man_made": null, "other_tags": "\"amenity\"=>\"restaurant\"", "nodeAuthor": "raaz", "nodeAuth_1": null, "nodeAuth_2": "2014-09-13T08:14:05Z" }, "geometry": { "type": "Point", "coordinates": [ 85.3380403, 27.7117079 ] } },
{ "type": "Feature", "properties": { "osm_id": "3074577226", "name": "Narayan Wood Carving Center", "barrier": null, "highway": null, "ref": null, "address": null, "is_in": null, "place": null, "man_made": null, "other_tags": "\"shop\"=>\"furniture\"", "nodeAuthor": "raaz", "nodeAuth_1": null, "nodeAuth_2": "2014-09-13T08:14:05Z" }, "geometry": { "type": "Point", "coordinates": [ 85.3393831, 27.7122726 ] } },
{ "type": "Feature", "properties": { "osm_id": "3074577227", "name": "Nepali Maharisi Foundation for Bhaidhik Culture", "barrier": null, "highway": null, "ref": null, "address": null, "is_in": null, "place": null, "man_made": null, "other_tags": "\"amenity\"=>\"school\"", "nodeAuthor": "raaz", "nodeAuth_1": null, "nodeAuth_2": "2014-09-13T08:14:05Z" }, "geometry": { "type": "Point", "coordinates": [ 85.3398568, 27.7112838 ] } },
{ "type": "Feature", "properties": { "osm_id": "3074577228", "name": "Newari Khaja Ghar", "barrier": null, "highway": null, "ref": null, "address": null, "is_in": null, "place": null, "man_made": null, "other_tags": "\"amenity\"=>\"restaurant\"", "nodeAuthor": "raaz", "nodeAuth_1": null, "nodeAuth_2": "2014-09-13T08:14:05Z" }, "geometry": { "type": "Point", "coordinates": [ 85.3403474, 27.7121232 ] } },
{ "type": "Feature", "properties": { "osm_id": "3074577229", "name": "Sabina Stationery center", "barrier": null, "highway": null, "ref": null, "address": null, "is_in": null, "place": null, "man_made": null, "other_tags": "\"shop\"=>\"stationery\"", "nodeAuthor": "raaz", "nodeAuth_1": null, "nodeAuth_2": "2014-09-13T08:14:05Z" }, "geometry": { "type": "Point", "coordinates": [ 85.3377127, 27.7114814 ] } },
{ "type": "Feature", "properties": { "osm_id": "3074577230", "name": "Santosh Hair Dresser And Salon", "barrier": null, "highway": null, "ref": null, "address": null, "is_in": null, "place": null, "man_made": null, "other_tags": "\"shop\"=>\"hairdresser\"", "nodeAuthor": "raaz", "nodeAuth_1": null, "nodeAuth_2": "2014-09-13T08:14:05Z" }, "geometry": { "type": "Point", "coordinates": [ 85.3377188, 27.7114001 ] } },
{ "type": "Feature", "properties": { "osm_id": "3074577231", "name": "Seto Bangla Boarding School", "barrier": null, "highway": null, "ref": null, "address": null, "is_in": null, "place": null, "man_made": null, "other_tags": "\"amenity\"=>\"school\"", "nodeAuthor": "raaz", "nodeAuth_1": null, "nodeAuth_2": "2014-09-13T08:14:05Z" }, "geometry": { "type": "Point", "coordinates": [ 85.3379743, 27.7117352 ] } },
{ "type": "Feature", "properties": { "osm_id": "3074577232", "name": "Shree Bal Byabasayi Kendra Secondary School", "barrier": null, "highway": null, "ref": null, "address": null, "is_in": null, "place": null, "man_made": null, "other_tags": "\"amenity\"=>\"school\"", "nodeAuthor": "raaz", "nodeAuth_1": null, "nodeAuth_2": "2014-09-13T08:14:05Z" }, "geometry": { "type": "Point", "coordinates": [ 85.3406025, 27.7109927 ] } },
{ "type": "Feature", "properties": { "osm_id": "3074580746", "name": "Castrol Auto City Pvt. Ltd.", "barrier": null, "highway": null, "ref": null, "address": null, "is_in": null, "place": null, "man_made": null, "other_tags": "\"shop\"=>\"car\"", "nodeAuthor": "rupa12", "nodeAuth_1": null, "nodeAuth_2": "2014-09-13T08:22:35Z" }, "geometry": { "type": "Point", "coordinates": [ 85.3382552, 27.7128851 ] } },
{ "type": "Feature", "properties": { "osm_id": "3074580747", "name": "Metropolitan Police Post", "barrier": null, "highway": null, "ref": null, "address": null, "is_in": null, "place": null, "man_made": null, "other_tags": "\"amenity\"=>\"police\"", "nodeAuthor": "rupa12", "nodeAuth_1": null, "nodeAuth_2": "2014-09-13T08:11:00Z" }, "geometry": { "type": "Point", "coordinates": [ 85.3388588, 27.7121975 ] } },
{ "type": "Feature", "properties": { "osm_id": "3074580748", "name": "Pashupati Bhandareshore", "barrier": null, "highway": null, "ref": null, "address": null, "is_in": null, "place": null, "man_made": null, "other_tags": "\"historic\"=>\"monument\"", "nodeAuthor": "rupa12", "nodeAuth_1": null, "nodeAuth_2": "2014-09-13T08:11:00Z" }, "geometry": { "type": "Point", "coordinates": [ 85.3388131, 27.7122848 ] } },
{ "type": "Feature", "properties": { "osm_id": "3074580749", "name": null, "barrier": null, "highway": "street_lamp", "ref": null, "address": null, "is_in": null, "place": null, "man_made": null, "other_tags": null, "nodeAuthor": "rupa12", "nodeAuth_1": null, "nodeAuth_2": "2014-09-13T08:11:00Z" }, "geometry": { "type": "Point", "coordinates": [ 85.3387078, 27.7120216 ] } },
{ "type": "Feature", "properties": { "osm_id": "3074580750", "name": null, "barrier": null, "highway": "street_lamp", "ref": null, "address": null, "is_in": null, "place": null, "man_made": null, "other_tags": null, "nodeAuthor": "rupa12", "nodeAuth_1": null, "nodeAuth_2": "2014-09-13T08:11:00Z" }, "geometry": { "type": "Point", "coordinates": [ 85.3381069, 27.7125439 ] } },
{ "type": "Feature", "properties": { "osm_id": "3074581506", "name": "Kailashkot Multiple Campus", "barrier": null, "highway": null, "ref": null, "address": null, "is_in": null, "place": null, "man_made": null, "other_tags": "\"amenity\"=>\"college\"", "nodeAuthor": "darshandip", "nodeAuth_1": null, "nodeAuth_2": "2014-09-13T08:11:59Z" }, "geometry": { "type": "Point", "coordinates": [ 85.3438148, 27.7107704 ] } },
{ "type": "Feature", "properties": { "osm_id": "3074581507", "name": "Shree Nirvaneshwor Mandir", "barrier": null, "highway": null, "ref": null, "address": null, "is_in": null, "place": null, "man_made": null, "other_tags": "\"amenity\"=>\"place_of_worship\"", "nodeAuthor": "darshandip", "nodeAuth_1": null, "nodeAuth_2": "2014-09-13T08:11:59Z" }, "geometry": { "type": "Point", "coordinates": [ 85.3446599, 27.7114496 ] } },
{ "type": "Feature", "properties": { "osm_id": "3074581508", "name": null, "barrier": null, "highway": "bus_stop", "ref": null, "address": null, "is_in": null, "place": null, "man_made": null, "other_tags": null, "nodeAuthor": "darshandip", "nodeAuth_1": null, "nodeAuth_2": "2014-09-13T08:11:59Z" }, "geometry": { "type": "Point", "coordinates": [ 85.344419, 27.71063 ] } },
{ "type": "Feature", "properties": { "osm_id": "3074581526", "name": null, "barrier": null, "highway": "crossing", "ref": null, "address": null, "is_in": null, "place": null, "man_made": null, "other_tags": null, "nodeAuthor": "darshandip", "nodeAuth_1": null, "nodeAuth_2": "2014-09-13T08:12:00Z" }, "geometry": { "type": "Point", "coordinates": [ 85.3444796, 27.7132433 ] } },
{ "type": "Feature", "properties": { "osm_id": "3074584433", "name": null, "barrier": null, "highway": "bus_stop", "ref": null, "address": null, "is_in": null, "place": null, "man_made": null, "other_tags": null, "nodeAuthor": "Rohini Thapa", "nodeAuth_1": null, "nodeAuth_2": "2014-09-13T08:12:12Z" }, "geometry": { "type": "Point", "coordinates": [ 85.3478852, 27.7178774 ] } },
{ "type": "Feature", "properties": { "osm_id": "3074584434", "name": null, "barrier": null, "highway": null, "ref": null, "address": null, "is_in": null, "place": null, "man_made": null, "other_tags": "\"manhole\"=>\"drain\"", "nodeAuthor": "Rohini Thapa", "nodeAuth_1": null, "nodeAuth_2": "2014-09-13T08:12:12Z" }, "geometry": { "type": "Point", "coordinates": [ 85.3475739, 27.7180113 ] } },
{ "type": "Feature", "properties": { "osm_id": "3074584435", "name": null, "barrier": null, "highway": "street_lamp", "ref": null, "address": null, "is_in": null, "place": null, "man_made": null, "other_tags": null, "nodeAuthor": "Rohini Thapa", "nodeAuth_1": null, "nodeAuth_2": "2014-09-13T08:12:12Z" }, "geometry": { "type": "Point", "coordinates": [ 85.3481496, 27.7180335 ] } },
{ "type": "Feature", "properties": { "osm_id": "3074584436", "name": null, "barrier": null, "highway": null, "ref": null, "address": null, "is_in": null, "place": null, "man_made": null, "other_tags": "\"manhole\"=>\"drain\"", "nodeAuthor": "Rohini Thapa", "nodeAuth_1": null, "nodeAuth_2": "2014-09-13T08:12:12Z" }, "geometry": { "type": "Point", "coordinates": [ 85.3475716, 27.7180441 ] } },
{ "type": "Feature", "properties": { "osm_id": "3074584437", "name": null, "barrier": null, "highway": "street_lamp", "ref": null, "address": null, "is_in": null, "place": null, "man_made": null, "other_tags": null, "nodeAuthor": "Rohini Thapa", "nodeAuth_1": null, "nodeAuth_2": "2014-09-13T08:12:12Z" }, "geometry": { "type": "Point", "coordinates": [ 85.3475834, 27.718199 ] } },
{ "type": "Feature", "properties": { "osm_id": "3074584438", "name": null, "barrier": null, "highway": "street_lamp", "ref": null, "address": null, "is_in": null, "place": null, "man_made": null, "other_tags": null, "nodeAuthor": "Rohini Thapa", "nodeAuth_1": null, "nodeAuth_2": "2014-09-13T08:12:12Z" }, "geometry": { "type": "Point", "coordinates": [ 85.3475851, 27.7182861 ] } },
{ "type": "Feature", "properties": { "osm_id": "3074584439", "name": null, "barrier": null, "highway": "street_lamp", "ref": null, "address": null, "is_in": null, "place": null, "man_made": null, "other_tags": null, "nodeAuthor": "Rohini Thapa", "nodeAuth_1": null, "nodeAuth_2": "2014-09-13T08:12:12Z" }, "geometry": { "type": "Point", "coordinates": [ 85.348185, 27.7182959 ] } },
{ "type": "Feature", "properties": { "osm_id": "3074584440", "name": null, "barrier": null, "highway": "street_lamp", "ref": null, "address": null, "is_in": null, "place": null, "man_made": null, "other_tags": null, "nodeAuthor": "Rohini Thapa", "nodeAuth_1": null, "nodeAuth_2": "2014-09-13T08:12:12Z" }, "geometry": { "type": "Point", "coordinates": [ 85.3482052, 27.7183665 ] } },
{ "type": "Feature", "properties": { "osm_id": "3074584441", "name": null, "barrier": null, "highway": null, "ref": null, "address": null, "is_in": null, "place": null, "man_made": null, "other_tags": "\"manhole\"=>\"unknown\"", "nodeAuthor": "Rohini Thapa", "nodeAuth_1": null, "nodeAuth_2": "2014-09-13T08:12:12Z" }, "geometry": { "type": "Point", "coordinates": [ 85.3482108, 27.7183873 ] } },
{ "type": "Feature", "properties": { "osm_id": "3074584442", "name": null, "barrier": null, "highway": "street_lamp", "ref": null, "address": null, "is_in": null, "place": null, "man_made": null, "other_tags": null, "nodeAuthor": "Rohini Thapa", "nodeAuth_1": null, "nodeAuth_2": "2014-09-13T08:12:12Z" }, "geometry": { "type": "Point", "coordinates": [ 85.3482518, 27.718505 ] } },
{ "type": "Feature", "properties": { "osm_id": "3074584443", "name": null, "barrier": null, "highway": null, "ref": null, "address": null, "is_in": null, "place": null, "man_made": null, "other_tags": "\"manhole\"=>\"unknown\"", "nodeAuthor": "Rohini Thapa", "nodeAuth_1": null, "nodeAuth_2": "2014-09-13T08:12:12Z" }, "geometry": { "type": "Point", "coordinates": [ 85.3482581, 27.7185301 ] } },
{ "type": "Feature", "properties": { "osm_id": "3074584444", "name": null, "barrier": null, "highway": "street_lamp", "ref": null, "address": null, "is_in": null, "place": null, "man_made": null, "other_tags": null, "nodeAuthor": "Rohini Thapa", "nodeAuth_1": null, "nodeAuth_2": "2014-09-13T08:12:12Z" }, "geometry": { "type": "Point", "coordinates": [ 85.3482881, 27.7187223 ] } },
{ "type": "Feature", "properties": { "osm_id": "3074584445", "name": null, "barrier": null, "highway": null, "ref": null, "address": null, "is_in": null, "place": null, "man_made": null, "other_tags": "\"manhole\"=>\"unknown\"", "nodeAuthor": "Rohini Thapa", "nodeAuth_1": null, "nodeAuth_2": "2014-09-13T08:12:12Z" }, "geometry": { "type": "Point", "coordinates": [ 85.3482909, 27.7187451 ] } },
{ "type": "Feature", "properties": { "osm_id": "3074584446", "name": null, "barrier": null, "highway": "street_lamp", "ref": null, "address": null, "is_in": null, "place": null, "man_made": null, "other_tags": null, "nodeAuthor": "Rohini Thapa", "nodeAuth_1": null, "nodeAuth_2": "2014-09-13T08:12:12Z" }, "geometry": { "type": "Point", "coordinates": [ 85.3482665, 27.7188334 ] } },
{ "type": "Feature", "properties": { "osm_id": "3074585010", "name": "Kumari sthan", "barrier": null, "highway": null, "ref": null, "address": null, "is_in": null, "place": null, "man_made": null, "other_tags": "\"amenity\"=>\"place_of_worship\",\"building\"=>\"temple\",\"religion\"=>\"hindu\"", "nodeAuthor": "ashishmittal1991", "nodeAuth_1": null, "nodeAuth_2": "2014-09-13T08:12:34Z" }, "geometry": { "type": "Point", "coordinates": [ 85.346592, 27.7133444 ] } },
{ "type": "Feature", "properties": { "osm_id": "3074585022", "name": "Aagrim Mahila Co-operative", "barrier": null, "highway": null, "ref": null, "address": null, "is_in": null, "place": null, "man_made": null, "other_tags": "\"amenity\"=>\"bank\",\"atm\"=>\"no\",\"office\"=>\"cooperative\"", "nodeAuthor": "cyonz", "nodeAuth_1": null, "nodeAuth_2": "2014-09-13T08:12:45Z" }, "geometry": { "type": "Point", "coordinates": [ 85.3452792, 27.7143334 ] } },
{ "type": "Feature", "properties": { "osm_id": "3074585023", "name": "Cosmetics and Gift Shop", "barrier": null, "highway": null, "ref": null, "address": null, "is_in": null, "place": null, "man_made": null, "other_tags": "\"shop\"=>\"Fix me\"", "nodeAuthor": "cyonz", "nodeAuth_1": null, "nodeAuth_2": "2014-09-13T08:12:45Z" }, "geometry": { "type": "Point", "coordinates": [ 85.3454969, 27.7145539 ] } },
{ "type": "Feature", "properties": { "osm_id": "3074585024", "name": "Cyber and Communication", "barrier": null, "highway": null, "ref": null, "address": null, "is_in": null, "place": null, "man_made": null, "other_tags": "\"cyber\"=>\"Fix me\"", "nodeAuthor": "cyonz", "nodeAuth_1": null, "nodeAuth_2": "2014-09-13T08:12:45Z" }, "geometry": { "type": "Point", "coordinates": [ 85.3452487, 27.7143261 ] } },
{ "type": "Feature", "properties": { "osm_id": "3074585025", "name": "Dhirghayu Cold Store", "barrier": null, "highway": null, "ref": null, "address": null, "is_in": null, "place": null, "man_made": null, "other_tags": "\"shop\"=>\"variety_store\"", "nodeAuthor": "cyonz", "nodeAuth_1": null, "nodeAuth_2": "2014-09-13T08:12:45Z" }, "geometry": { "type": "Point", "coordinates": [ 85.3453753, 27.7144319 ] } },
{ "type": "Feature", "properties": { "osm_id": "3074585026", "name": "Flex Print", "barrier": null, "highway": null, "ref": null, "address": null, "is_in": null, "place": null, "man_made": null, "other_tags": "\"amenity\"=>\"arts_centre\"", "nodeAuthor": "cyonz", "nodeAuth_1": null, "nodeAuth_2": "2014-09-13T08:12:45Z" }, "geometry": { "type": "Point", "coordinates": [ 85.3452757, 27.7143562 ] } },
{ "type": "Feature", "properties": { "osm_id": "3074585027", "name": "Manakamana Tailoring", "barrier": null, "highway": null, "ref": null, "address": null, "is_in": null, "place": null, "man_made": null, "other_tags": "\"shop\"=>\"tailor\"", "nodeAuthor": "cyonz", "nodeAuth_1": null, "nodeAuth_2": "2014-09-13T08:12:46Z" }, "geometry": { "type": "Point", "coordinates": [ 85.3444871, 27.7133667 ] } },
{ "type": "Feature", "properties": { "osm_id": "3074585028", "name": "Palpali Cold Store", "barrier": null, "highway": null, "ref": null, "address": null, "is_in": null, "place": null, "man_made": null, "other_tags": "\"shop\"=>\"variety_store\"", "nodeAuthor": "cyonz", "nodeAuth_1": null, "nodeAuth_2": "2014-09-13T08:12:46Z" }, "geometry": { "type": "Point", "coordinates": [ 85.3453668, 27.7144254 ] } },
{ "type": "Feature", "properties": { "osm_id": "3074585029", "name": "Parking Space", "barrier": null, "highway": null, "ref": null, "address": null, "is_in": null, "place": null, "man_made": null, "other_tags": "\"access\"=>\"yes\",\"amenity\"=>\"parking_space\",\"covered\"=>\"no\",\"parking\"=>\"surface\",\"supervised\"=>\"yes\",\"surface\"=>\"concrete\"", "nodeAuthor": "cyonz", "nodeAuth_1": null, "nodeAuth_2": "2014-09-13T08:12:46Z" }, "geometry": { "type": "Point", "coordinates": [ 85.345475, 27.7144447 ] } },
{ "type": "Feature", "properties": { "osm_id": "3074585030", "name": "Pashupati Books and Stationery", "barrier": null, "highway": null, "ref": null, "address": null, "is_in": null, "place": null, "man_made": null, "other_tags": "\"shop\"=>\"books\"", "nodeAuthor": "cyonz", "nodeAuth_1": null, "nodeAuth_2": "2014-09-13T08:12:46Z" }, "geometry": { "type": "Point", "coordinates": [ 85.3445378, 27.7134707 ] } },
{ "type": "Feature", "properties": { "osm_id": "3074585031", "name": "Pipalbot Budhang Marg", "barrier": null, "highway": null, "ref": null, "address": null, "is_in": null, "place": null, "man_made": null, "other_tags": "\"natural\"=>\"tree\",\"type\"=>\"Pipal Tree\"", "nodeAuthor": "cyonz", "nodeAuth_1": null, "nodeAuth_2": "2014-09-13T08:12:46Z" }, "geometry": { "type": "Point", "coordinates": [ 85.3457195, 27.7147294 ] } },
{ "type": "Feature", "properties": { "osm_id": "3074585032", "name": "Pratima jati Nagarik Samaj Nepal", "barrier": null, "highway": null, "ref": null, "address": null, "is_in": null, "place": null, "man_made": null, "other_tags": "\"information\"=>\"office\",\"tourism\"=>\"information\"", "nodeAuthor": "cyonz", "nodeAuth_1": null, "nodeAuth_2": "2014-09-13T08:12:46Z" }, "geometry": { "type": "Point", "coordinates": [ 85.345305, 27.7143655 ] } },
{ "type": "Feature", "properties": { "osm_id": "3074585309", "name": "Real Classic jewellers", "barrier": null, "highway": null, "ref": null, "address": null, "is_in": null, "place": null, "man_made": null, "other_tags": "\"shop\"=>\"jewelry\"", "nodeAuthor": "BishnuDhungana", "nodeAuth_1": null, "nodeAuth_2": "2014-09-13T08:12:48Z" }, "geometry": { "type": "Point", "coordinates": [ 85.3470625, 27.7171877 ] } },
{ "type": "Feature", "properties": { "osm_id": "3074585310", "name": null, "barrier": null, "highway": "street_lamp", "ref": null, "address": null, "is_in": null, "place": null, "man_made": null, "other_tags": null, "nodeAuthor": "BishnuDhungana", "nodeAuth_1": null, "nodeAuth_2": "2014-09-13T08:12:48Z" }, "geometry": { "type": "Point", "coordinates": [ 85.3473735, 27.7158417 ] } },
{ "type": "Feature", "properties": { "osm_id": "3074585311", "name": null, "barrier": null, "highway": null, "ref": null, "address": null, "is_in": null, "place": null, "man_made": null, "other_tags": "\"shop\"=>\"beverages\"", "nodeAuthor": "BishnuDhungana", "nodeAuth_1": null, "nodeAuth_2": "2014-09-13T08:12:48Z" }, "geometry": { "type": "Point", "coordinates": [ 85.3473149, 27.716395 ] } },
{ "type": "Feature", "properties": { "osm_id": "3074585312", "name": null, "barrier": null, "highway": "street_lamp", "ref": null, "address": null, "is_in": null, "place": null, "man_made": null, "other_tags": null, "nodeAuthor": "BishnuDhungana", "nodeAuth_1": null, "nodeAuth_2": "2014-09-13T08:12:48Z" }, "geometry": { "type": "Point", "coordinates": [ 85.3476505, 27.7169027 ] } },
{ "type": "Feature", "properties": { "osm_id": "3074585313", "name": null, "barrier": null, "highway": null, "ref": null, "address": null, "is_in": null, "place": null, "man_made": null, "other_tags": "\"shop\"=>\"jewelry\"", "nodeAuthor": "BishnuDhungana", "nodeAuth_1": null, "nodeAuth_2": "2014-09-13T08:12:48Z" }, "geometry": { "type": "Point", "coordinates": [ 85.3471386, 27.7172319 ] } },
{ "type": "Feature", "properties": { "osm_id": "3074585314", "name": null, "barrier": null, "highway": null, "ref": null, "address": null, "is_in": null, "place": null, "man_made": null, "other_tags": "\"shop\"=>\"jewelry\"", "nodeAuthor": "BishnuDhungana", "nodeAuth_1": null, "nodeAuth_2": "2014-09-13T08:12:48Z" }, "geometry": { "type": "Point", "coordinates": [ 85.3471537, 27.717248 ] } },
{ "type": "Feature", "properties": { "osm_id": "3074585315", "name": null, "barrier": null, "highway": null, "ref": null, "address": null, "is_in": null, "place": null, "man_made": null, "other_tags": "\"shop\"=>\"jewelry\"", "nodeAuthor": "BishnuDhungana", "nodeAuth_1": null, "nodeAuth_2": "2014-09-13T08:12:48Z" }, "geometry": { "type": "Point", "coordinates": [ 85.3471719, 27.7172571 ] } },
{ "type": "Feature", "properties": { "osm_id": "3074585316", "name": null, "barrier": null, "highway": null, "ref": null, "address": null, "is_in": null, "place": null, "man_made": null, "other_tags": "\"craft\"=>\"photographic_laboratory\"", "nodeAuthor": "BishnuDhungana", "nodeAuth_1": null, "nodeAuth_2": "2014-09-13T08:12:48Z" }, "geometry": { "type": "Point", "coordinates": [ 85.3472449, 27.7173042 ] } },
{ "type": "Feature", "properties": { "osm_id": "3074585320", "name": null, "barrier": null, "highway": null, "ref": null, "address": null, "is_in": null, "place": null, "man_made": null, "other_tags": "\"shop\"=>\"convenience\"", "nodeAuthor": "BishnuDhungana", "nodeAuth_1": null, "nodeAuth_2": "2014-09-13T08:12:48Z" }, "geometry": { "type": "Point", "coordinates": [ 85.3473887, 27.7173773 ] } },
{ "type": "Feature", "properties": { "osm_id": "3074585323", "name": null, "barrier": null, "highway": "street_lamp", "ref": null, "address": null, "is_in": null, "place": null, "man_made": null, "other_tags": null, "nodeAuthor": "BishnuDhungana", "nodeAuth_1": null, "nodeAuth_2": "2014-09-13T08:12:48Z" }, "geometry": { "type": "Point", "coordinates": [ 85.3477091, 27.7174053 ] } },
{ "type": "Feature", "properties": { "osm_id": "3074585324", "name": null, "barrier": null, "highway": null, "ref": null, "address": null, "is_in": null, "place": null, "man_made": null, "other_tags": "\"shop\"=>\"convenience\"", "nodeAuthor": "BishnuDhungana", "nodeAuth_1": null, "nodeAuth_2": "2014-09-13T08:12:48Z" }, "geometry": { "type": "Point", "coordinates": [ 85.3477435, 27.7174066 ] } },
{ "type": "Feature", "properties": { "osm_id": "3074585326", "name": null, "barrier": null, "highway": "street_lamp", "ref": null, "address": null, "is_in": null, "place": null, "man_made": null, "other_tags": null, "nodeAuthor": "BishnuDhungana", "nodeAuth_1": null, "nodeAuth_2": "2014-09-13T08:12:48Z" }, "geometry": { "type": "Point", "coordinates": [ 85.3474002, 27.7174151 ] } },
{ "type": "Feature", "properties": { "osm_id": "3074585327", "name": null, "barrier": null, "highway": null, "ref": null, "address": null, "is_in": null, "place": null, "man_made": null, "other_tags": "\"shop\"=>\"convenience\"", "nodeAuthor": "BishnuDhungana", "nodeAuth_1": null, "nodeAuth_2": "2014-09-13T08:12:49Z" }, "geometry": { "type": "Point", "coordinates": [ 85.3474431, 27.7174186 ] } },
{ "type": "Feature", "properties": { "osm_id": "3074585329", "name": null, "barrier": null, "highway": null, "ref": null, "address": null, "is_in": null, "place": null, "man_made": null, "other_tags": "\"shop\"=>\"convenience\"", "nodeAuthor": "BishnuDhungana", "nodeAuth_1": null, "nodeAuth_2": "2014-09-13T08:12:49Z" }, "geometry": { "type": "Point", "coordinates": [ 85.3474922, 27.7174473 ] } },
{ "type": "Feature", "properties": { "osm_id": "3074585330", "name": null, "barrier": null, "highway": "street_lamp", "ref": null, "address": null, "is_in": null, "place": null, "man_made": null, "other_tags": null, "nodeAuthor": "BishnuDhungana", "nodeAuth_1": null, "nodeAuth_2": "2014-09-13T08:12:49Z" }, "geometry": { "type": "Point", "coordinates": [ 85.3476795, 27.7174502 ] } },
{ "type": "Feature", "properties": { "osm_id": "3074585331", "name": null, "barrier": null, "highway": null, "ref": null, "address": null, "is_in": null, "place": null, "man_made": null, "other_tags": "\"shop\"=>\"convenience\"", "nodeAuthor": "BishnuDhungana", "nodeAuth_1": null, "nodeAuth_2": "2014-09-13T08:12:49Z" }, "geometry": { "type": "Point", "coordinates": [ 85.347512, 27.7174515 ] } },
{ "type": "Feature", "properties": { "osm_id": "3074585332", "name": null, "barrier": null, "highway": null, "ref": null, "address": null, "is_in": null, "place": null, "man_made": null, "other_tags": "\"amenity\"=>\"hospital\"", "nodeAuthor": "BishnuDhungana", "nodeAuth_1": null, "nodeAuth_2": "2014-09-13T08:12:49Z" }, "geometry": { "type": "Point", "coordinates": [ 85.3475795, 27.7174587 ] } },
{ "type": "Feature", "properties": { "osm_id": "3074585433", "name": "Purbeli Hotel", "barrier": null, "highway": null, "ref": null, "address": null, "is_in": null, "place": null, "man_made": null, "other_tags": "\"amenity\"=>\"restaurant\"", "nodeAuthor": "cyonz", "nodeAuth_1": null, "nodeAuth_2": "2014-09-13T08:12:46Z" }, "geometry": { "type": "Point", "coordinates": [ 85.3447275, 27.7133195 ] } },
{ "type": "Feature", "properties": { "osm_id": "3074585434", "name": "Rastriya yatayat upovokta Sangh Nepal", "barrier": null, "highway": null, "ref": null, "address": null, "is_in": null, "place": null, "man_made": null, "other_tags": "\"information\"=>\"office\",\"tourism\"=>\"information\"", "nodeAuthor": "cyonz", "nodeAuth_1": null, "nodeAuth_2": "2014-09-13T08:12:46Z" },